                             GD30L MMC DATA LOGGER
+-----------------------------------------------------------------------------+
  UPDATE rate: 01 second(s)
  RECORD sentence(s): RMC, GGA
+-----------------------------------------------------------------------------+
$GPRMC,095536.449,A,0534.3600,N,00012.4282,W,11.64,246.85,220410,,*26
$GPGGA,095536.449,0534.3600,N,00012.4282,W,1,04,2.4,54.2,M,20.4,M,0.0,0000*5A
$GPRMC,095537.449,A,0534.3594,N,00012.4310,W,10.75,254.55,220410,,*2C
$GPGGA,095538.449,0534.3589,N,00012.4338,W,1,04,2.4,53.2,M,20.4,M,0.0,0000*51
$GPRMC,095538.449,A,0534.3589,N,00012.4338,W,10.59,260.57,220410,,*2E
$GPGGA,095539.449,0534.3584,N,00012.4370,W,1,04,2.4,55.4,M,20.4,M,0.0,0000*51
$GPRMC,095539.449,A,0534.3584,N,00012.4370,W,11.61,259.31,220410,,*2E
$GPGGA,095540.449,0534.3575,N,00012.4404,W,1,04,2.4,55.6,M,20.4,M,0.0,0000*57
$GPRMC,095541.449,A,0534.3563,N,00012.4439,W,12.51,257.70,220410,,*29
$GPGGA,095541.449,0534.3563,N,00012.4439,W,1,04,2.4,57.9,M,20.4,M,0.0,0000*52
$GPRMC,095541.449,A,0534.3563,N,00012.4439,W,12.51,257.70,220410,,*29
$GPGGA,095542.448,0534.3555,N,00012.4476,W,1,04,2.4,59.1,M,20.4,M,0.0,0000*58
$GPRMC,095543.448,A,0534.3550,N,00012.4512,W,12.89,262.14,220410,,*23
$GPGGA,095543.448,0534.3550,N,00012.4512,W,1,04,2.4,59.5,M,20.4,M,0.0,0000*5B
$GPRMC,095544.448,A,0534.3546,N,00012.4543,W,10.45,259.02,220410,,*2A
$GPGGA,095544.448,0534.3546,N,00012.4543,W,1,04,2.4,60.0,M,20.4,M,0.0,0000*50
$GPRMC,095545.448,A,0534.3542,N,00012.4566,W,6.38,260.17,220410,,*1B
$GPGGA,095545.448,0534.3542,N,00012.4566,W,1,04,2.4,60.1,M,20.4,M,0.0,0000*53
$GPRMC,095546.448,A,0534.3540,N,00012.4578,W,2.96,263.73,220410,,*14
$GPGGA,095546.448,0534.3540,N,00012.4578,W,1,04,2.4,59.7,M,20.4,M,0.0,0000*51
$GPRMC,095546.448,A,0534.3540,N,00012.4578,W,2.96,263.73,220410,,*14
$GPGGA,095547.448,0534.3539,N,00012.4582,W,1,04,2.4,59.0,M,20.4,M,0.0,0000*5C
$GPRMC,095548.448,A,0534.3539,N,00012.4583,W,0.46,266.66,220410,,*1E
$GPGGA,095548.448,0534.3539,N,00012.4583,W,1,04,2.4,58.9,M,20.4,M,0.0,0000*5A
$GPRMC,095549.448,A,0534.3539,N,00012.4584,W,0.32,274.54,220410,,*19
$GPGGA,095549.448,0534.3539,N,00012.4584,W,1,04,2.4,58.9,M,20.4,M,0.0,0000*5C
$GPRMC,095550.448,A,0534.3539,N,00012.4584,W,0.05,351.13,220410,,*10
$GPGGA,095550.448,0534.3539,N,00012.4584,W,1,04,2.4,59.1,M,20.4,M,0.0,0000*5D
$GPRMC,095551.448,A,0534.3539,N,00012.4584,W,0.32,276.31,220410,,*11
$GPGGA,095551.448,0534.3539,N,00012.4584,W,1,04,2.4,59.3,M,20.4,M,0.0,0000*5E
$GPRMC,095552.448,A,0534.3539,N,00012.4585,W,1.20,278.29,220410,,*16
$GPGGA,095552.448,0534.3539,N,00012.4585,W,1,04,2.4,59.5,M,20.4,M,0.0,0000*5A
$GPRMC,095553.448,A,0534.3540,N,00012.4588,W,1.28,271.05,220410,,*1B
$GPGGA,095553.448,0534.3540,N,00012.4588,W,1,04,2.4,59.5,M,20.4,M,0.0,0000*58
$GPRMC,095554.448,A,0534.3540,N,00012.4590,W,0.20,296.79,220410,,*1E
$GPGGA,095554.448,0534.3540,N,00012.4590,W,1,04,2.4,59.4,M,20.4,M,0.0,0000*57
$GPRMC,095555.448,A,0534.3540,N,00012.4590,W,0.39,280.47,220410,,*1D
$GPGGA,095555.448,0534.3540,N,00012.4590,W,1,04,2.4,59.4,M,20.4,M,0.0,0000*56
$GPRMC,095556.448,A,0534.3541,N,00012.4593,W,2.29,278.70,220410,,*1C
$GPGGA,095556.448,0534.3541,N,00012.4593,W,1,04,2.4,59.3,M,20.4,M,0.0,0000*50
$GPRMC,095557.448,A,0534.3543,N,00012.4602,W,4.46,285.63,220410,,*1B
$GPGGA,095557.448,0534.3543,N,00012.4602,W,1,04,2.4,59.3,M,20.4,M,0.0,0000*58
$GPRMC,095557.448,A,0534.3543,N,00012.4602,W,4.46,285.63,220410,,*1B
$GPGGA,095558.448,0534.3550,N,00012.4614,W,1,05,2.2,59.0,M,20.4,M,0.0,0000*56
$GPRMC,095558.448,A,0534.3550,N,00012.4614,W,6.25,302.90,220410,,*14
$GPGGA,095559.448,0534.3564,N,00012.4630,W,1,05,2.2,59.0,M,20.4,M,0.0,0000*56
$GPRMC,095600.448,A,0534.3582,N,00012.4647,W,9.87,317.46,220410,,*1B
$GPGGA,095600.448,0534.3582,N,00012.4647,W,1,05,2.2,59.5,M,20.4,M,0.0,0000*54
$GPRMC,095601.448,A,0534.3604,N,00012.4667,W,10.50,318.07,220410,,*2D
$GPGGA,095601.448,0534.3604,N,00012.4667,W,1,05,2.2,59.9,M,20.4,M,0.0,0000*56
$GPRMC,095602.448,A,0534.3625,N,00012.4686,W,10.06,318.67,220410,,*27
$GPGGA,095602.448,0534.3625,N,00012.4686,W,1,05,2.2,60.3,M,20.4,M,0.0,0000*59
$GPRMC,095603.447,A,0534.3646,N,00012.4705,W,9.42,318.91,220410,,*17
$GPGGA,095603.447,0534.3646,N,00012.4705,W,1,05,2.2,60.7,M,20.4,M,0.0,0000*5C
$GPRMC,095603.447,A,0534.3646,N,00012.4705,W,9.42,318.91,220410,,*17
$GPGGA,095604.447,0534.3669,N,00012.4720,W,1,07,1.2,58.5,M,20.4,M,0.0,0000*59
$GPRMC,095604.447,A,0534.3669,N,00012.4720,W,8.87,319.02,220410,,*19
$GPGGA,095605.447,0534.3691,N,00012.4735,W,1,07,1.2,57.0,M,20.4,M,0.0,0000*51
$GPRMC,095605.447,A,0534.3691,N,00012.4735,W,9.06,321.22,220410,,*1A
$GPGGA,095606.447,0534.3714,N,00012.4749,W,1,07,1.2,56.0,M,20.4,M,0.0,0000*54
$GPRMC,095606.447,A,0534.3714,N,00012.4749,W,9.37,323.18,220410,,*17
$GPGGA,095607.447,0534.3738,N,00012.4763,W,1,07,1.2,55.5,M,20.4,M,0.0,0000*55
$GPRMC,095608.447,A,0534.3762,N,00012.4775,W,8.83,334.72,220410,,*13
$GPGGA,095608.447,0534.3762,N,00012.4775,W,1,07,1.2,55.1,M,20.4,M,0.0,0000*56
$GPRMC,095608.447,A,0534.3762,N,00012.4775,W,8.83,334.72,220410,,*13
$GPGGA,095609.447,0534.3785,N,00012.4783,W,1,07,1.2,54.6,M,20.4,M,0.0,0000*51
$GPRMC,095610.447,A,0534.3810,N,00012.4790,W,9.21,341.89,220410,,*14
$GPGGA,095610.447,0534.3810,N,00012.4790,W,1,07,1.2,54.3,M,20.4,M,0.0,0000*5D
$GPRMC,095610.447,A,0534.3810,N,00012.4790,W,9.21,341.89,220410,,*14
$GPGGA,095611.447,0534.3836,N,00012.4798,W,1,07,1.2,54.0,M,20.4,M,0.0,0000*53
$GPRMC,095611.447,A,0534.3836,N,00012.4798,W,10.25,342.70,220410,,*20
$GPGGA,095612.447,0534.3865,N,00012.4806,W,1,07,1.2,53.8,M,20.4,M,0.0,0000*51
$GPRMC,095612.447,A,0534.3865,N,00012.4806,W,10.97,342.30,220410,,*20
$GPGGA,095613.447,0534.3895,N,00012.4814,W,1,07,1.2,53.6,M,20.4,M,0.0,0000*52
$GPRMC,095614.447,A,0534.3922,N,00012.4819,W,8.93,349.29,220410,,*14
$GPGGA,095614.447,0534.3922,N,00012.4819,W,1,07,1.2,53.4,M,20.4,M,0.0,0000*57
$GPRMC,095614.447,A,0534.3922,N,00012.4819,W,8.93,349.29,220410,,*14
$GPGGA,095615.447,0534.3944,N,00012.4824,W,1,07,1.2,53.1,M,20.4,M,0.0,0000*5D
$GPRMC,095615.447,A,0534.3944,N,00012.4824,W,7.40,346.08,220410,,*16
$GPGGA,095616.447,0534.3963,N,00012.4829,W,1,07,1.2,52.9,M,20.4,M,0.0,0000*5F
$GPRMC,095616.447,A,0534.3963,N,00012.4829,W,7.00,343.49,220410,,*19
$GPGGA,095617.447,0534.3983,N,00012.4834,W,1,07,1.2,52.7,M,20.4,M,0.0,0000*52
$GPRMC,095618.447,A,0534.4005,N,00012.4841,W,8.95,341.37,220410,,*1F
$GPGGA,095618.447,0534.4005,N,00012.4841,W,1,07,1.2,52.6,M,20.4,M,0.0,0000*5E
$GPRMC,095618.447,A,0534.4005,N,00012.4841,W,8.95,341.37,220410,,*1F
$GPGGA,095619.447,0534.4028,N,00012.4849,W,1,07,1.2,52.6,M,20.4,M,0.0,0000*58
$GPRMC,095619.447,A,0534.4028,N,00012.4849,W,9.19,342.45,220410,,*1A
$GPGGA,095620.447,0534.4054,N,00012.4857,W,1,07,1.2,52.6,M,20.4,M,0.0,0000*56
$GPRMC,095622.447,A,0534.4106,N,00012.4871,W,9.55,344.91,220410,,*13
$GPGGA,095622.447,0534.4106,N,00012.4871,W,1,07,1.2,52.8,M,20.4,M,0.0,0000*58
$GPRMC,095623.447,A,0534.4132,N,00012.4878,W,9.70,344.35,220410,,*15
$GPGGA,095623.447,0534.4132,N,00012.4878,W,1,07,1.2,52.8,M,20.4,M,0.0,0000*57
$GPRMC,095624.446,A,0534.4158,N,00012.4884,W,9.66,346.20,220410,,*1D
$GPGGA,095624.446,0534.4158,N,00012.4884,W,1,07,1.2,52.8,M,20.4,M,0.0,0000*5E
$GPRMC,095624.446,A,0534.4158,N,00012.4884,W,9.66,346.20,220410,,*1D
$GPGGA,095625.446,0534.4182,N,00012.4890,W,1,07,1.2,52.7,M,20.4,M,0.0,0000*52
$GPRMC,095625.446,A,0534.4182,N,00012.4890,W,8.23,346.57,220410,,*1E
$GPGGA,095626.446,0534.4203,N,00012.4894,W,1,07,1.2,52.7,M,20.4,M,0.0,0000*5F
$GPRMC,095627.446,A,0534.4220,N,00012.4896,W,5.92,351.14,220410,,*17
$GPGGA,095627.446,0534.4220,N,00012.4896,W,1,07,1.2,52.7,M,20.4,M,0.0,0000*5D
$GPRMC,095628.446,A,0534.4234,N,00012.4898,W,4.54,352.03,220410,,*1D
$GPGGA,095628.446,0534.4234,N,00012.4898,W,1,07,1.2,52.8,M,20.4,M,0.0,0000*56
$GPRMC,095628.446,A,0534.4234,N,00012.4898,W,4.54,352.03,220410,,*1D
$GPGGA,095629.446,0534.4242,N,00012.4899,W,1,07,1.2,52.9,M,20.4,M,0.0,0000*56
$GPRMC,095629.446,A,0534.4242,N,00012.4899,W,1.34,350.34,220410,,*19
$GPGGA,095630.446,0534.4243,N,00012.4899,W,1,07,1.2,53.2,M,20.4,M,0.0,0000*55
$GPRMC,095630.446,A,0534.4243,N,00012.4899,W,0.25,334.29,220410,,*1F
$GPGGA,095631.446,0534.4242,N,00012.4900,W,1,07,1.2,53.6,M,20.4,M,0.0,0000*50
$GPRMC,095631.446,A,0534.4242,N,00012.4900,W,0.01,26.26,220410,,*27
$GPGGA,095632.446,0534.4241,N,00012.4900,W,1,07,1.2,54.0,M,20.4,M,0.0,0000*51
$GPRMC,095632.446,A,0534.4241,N,00012.4900,W,0.11,353.48,220410,,*1F
$GPGGA,095633.446,0534.4242,N,00012.4900,W,1,07,1.2,54.4,M,20.4,M,0.0,0000*57
$GPRMC,095634.446,A,0534.4247,N,00012.4901,W,3.17,352.23,220410,,*17
$GPGGA,095634.446,0534.4247,N,00012.4901,W,1,07,1.2,54.6,M,20.4,M,0.0,0000*56
$GPRMC,095635.446,A,0534.4259,N,00012.4902,W,5.90,350.63,220410,,*15
$GPGGA,095636.446,0534.4278,N,00012.4906,W,1,07,1.2,54.8,M,20.4,M,0.0,0000*51
$GPRMC,095636.446,A,0534.4278,N,00012.4906,W,7.62,347.84,220410,,*11
$GPGGA,095637.446,0534.4300,N,00012.4911,W,1,07,1.2,54.7,M,20.4,M,0.0,0000*57
$GPRMC,095637.446,A,0534.4300,N,00012.4911,W,8.60,346.36,220410,,*1D
$GPGGA,095638.446,0534.4324,N,00012.4916,W,1,07,1.2,54.6,M,20.4,M,0.0,0000*58
$GPRMC,095638.446,A,0534.4324,N,00012.4916,W,9.17,345.90,220410,,*1D
$GPGGA,095639.446,0534.4351,N,00012.4923,W,1,07,1.2,54.6,M,20.4,M,0.0,0000*5D
$GPRMC,095639.446,A,0534.4351,N,00012.4923,W,10.33,344.28,220410,,*24
$GPGGA,095640.446,0534.4381,N,00012.4931,W,1,07,1.2,54.6,M,20.4,M,0.0,0000*5D
$GPRMC,095640.446,A,0534.4381,N,00012.4931,W,11.44,343.84,220410,,*24
$GPGGA,095641.446,0534.4412,N,00012.4940,W,1,07,1.2,54.6,M,20.4,M,0.0,0000*57
$GPRMC,095642.446,A,0534.4442,N,00012.4948,W,10.60,342.82,220410,,*20
$GPGGA,095642.446,0534.4442,N,00012.4948,W,1,07,1.2,54.7,M,20.4,M,0.0,0000*58
$GPRMC,095644.446,A,0534.4501,N,00012.4966,W,11.84,343.90,220410,,*25
$GPGGA,095644.446,0534.4501,N,00012.4966,W,1,07,1.2,55.0,M,20.4,M,0.0,0000*52
$GPRMC,095645.445,A,0534.4536,N,00012.4975,W,12.98,347.11,220410,,*22
$GPGGA,095645.445,0534.4536,N,00012.4975,W,1,07,1.2,55.2,M,20.4,M,0.0,0000*54
$GPRMC,095645.445,A,0534.4536,N,00012.4975,W,12.98,347.11,220410,,*22
$GPGGA,095646.445,0534.4573,N,00012.4983,W,1,07,1.2,55.4,M,20.4,M,0.0,0000*59
$GPRMC,095646.445,A,0534.4573,N,00012.4983,W,13.99,348.12,220410,,*25
$GPGGA,095647.445,0534.4614,N,00012.4992,W,1,07,1.2,55.6,M,20.4,M,0.0,0000*58
$GPRMC,095648.445,A,0534.4657,N,00012.5001,W,15.97,347.46,220410,,*2A
$GPGGA,095648.445,0534.4657,N,00012.5001,W,1,07,1.2,55.8,M,20.4,M,0.0,0000*5C
$GPRMC,095648.445,A,0534.4657,N,00012.5001,W,15.97,347.46,220410,,*2A
$GPGGA,095649.445,0534.4703,N,00012.5011,W,1,07,1.2,56.0,M,20.4,M,0.0,0000*57
$GPRMC,095649.445,A,0534.4703,N,00012.5011,W,16.74,347.53,220410,,*20
$GPGGA,095650.445,0534.4751,N,00012.5021,W,1,07,1.2,56.3,M,20.4,M,0.0,0000*58
$GPRMC,095651.445,A,0534.4801,N,00012.5032,W,18.45,347.98,220410,,*2E
$GPGGA,095651.445,0534.4801,N,00012.5032,W,1,07,1.2,56.5,M,20.4,M,0.0,0000*57
$GPRMC,095651.445,A,0534.4801,N,00012.5032,W,18.45,347.98,220410,,*2E
$GPGGA,095652.445,0534.4853,N,00012.5044,W,1,07,1.2,56.7,M,20.4,M,0.0,0000*50
$GPRMC,095653.445,A,0534.4907,N,00012.5056,W,19.81,346.15,220410,,*24
$GPGGA,095653.445,0534.4907,N,00012.5056,W,1,07,1.2,56.8,M,20.4,M,0.0,0000*5D
$GPRMC,095655.445,A,0534.5018,N,00012.5084,W,20.63,346.32,220410,,*28
$GPGGA,095655.445,0534.5018,N,00012.5084,W,1,07,1.2,57.1,M,20.4,M,0.0,0000*5A
$GPRMC,095655.445,A,0534.5018,N,00012.5084,W,20.63,346.32,220410,,*28
$GPGGA,095656.445,0534.5076,N,00012.5098,W,1,07,1.2,57.3,M,20.4,M,0.0,0000*5E
$GPRMC,095656.445,A,0534.5076,N,00012.5098,W,21.09,346.36,220410,,*27
$GPGGA,095657.445,0534.5134,N,00012.5111,W,1,07,1.2,57.5,M,20.4,M,0.0,0000*5E
$GPRMC,095657.445,A,0534.5134,N,00012.5111,W,21.34,347.08,220410,,*23
$GPGGA,095658.445,0534.5192,N,00012.5125,W,1,07,1.2,57.8,M,20.4,M,0.0,0000*57
$GPRMC,095658.445,A,0534.5192,N,00012.5125,W,20.76,347.18,220410,,*21
$GPGGA,095659.445,0534.5248,N,00012.5137,W,1,07,1.2,58.1,M,20.4,M,0.0,0000*57
$GPRMC,095659.445,A,0534.5248,N,00012.5137,W,19.71,347.10,220410,,*22
$GPGGA,095700.445,0534.5299,N,00012.5149,W,1,07,1.2,58.4,M,20.4,M,0.0,0000*5A
$GPRMC,095701.445,A,0534.5347,N,00012.5160,W,16.67,347.64,220410,,*29
$GPGGA,095701.445,0534.5347,N,00012.5160,W,1,07,1.2,58.7,M,20.4,M,0.0,0000*51
$GPRMC,095702.445,A,0534.5390,N,00012.5170,W,15.42,347.41,220410,,*22
$GPGGA,095702.445,0534.5390,N,00012.5170,W,1,07,1.2,58.9,M,20.4,M,0.0,0000*57
$GPRMC,095703.445,A,0534.5429,N,00012.5179,W,13.75,348.06,220410,,*21
$GPGGA,095703.445,0534.5429,N,00012.5179,W,1,07,1.2,59.2,M,20.4,M,0.0,0000*50
$GPRMC,095703.445,A,0534.5429,N,00012.5179,W,13.75,348.06,220410,,*21
$GPGGA,095704.445,0534.5465,N,00012.5186,W,1,07,1.2,59.4,M,20.4,M,0.0,0000*59
$GPRMC,095704.445,A,0534.5465,N,00012.5186,W,12.95,347.95,220410,,*24
$GPGGA,095705.445,0534.5499,N,00012.5195,W,1,07,1.2,59.6,M,20.4,M,0.0,0000*5B
$GPRMC,095705.445,A,0534.5499,N,00012.5195,W,13.06,345.76,220410,,*20
$GPGGA,095706.445,0534.5535,N,00012.5204,W,1,07,1.2,59.8,M,20.4,M,0.0,0000*5A
$GPRMC,095707.444,A,0534.5571,N,00012.5212,W,13.93,348.19,220410,,*20
$GPGGA,095707.444,0534.5571,N,00012.5212,W,1,07,1.2,59.9,M,20.4,M,0.0,0000*5C
$GPRMC,095707.444,A,0534.5571,N,00012.5212,W,13.93,348.19,220410,,*20
$GPGGA,095708.444,0534.5609,N,00012.5220,W,1,06,1.8,60.0,M,20.4,M,0.0,0000*56
$GPRMC,095708.444,A,0534.5609,N,00012.5220,W,14.18,347.65,220410,,*22
$GPGGA,095709.444,0534.5647,N,00012.5229,W,1,07,1.2,60.1,M,20.4,M,0.0,0000*5E
$GPRMC,095709.444,A,0534.5647,N,00012.5229,W,13.99,345.95,220410,,*23
$GPGGA,095710.444,0534.5683,N,00012.5238,W,1,07,1.2,60.2,M,20.4,M,0.0,0000*5D
$GPRMC,095710.444,A,0534.5683,N,00012.5238,W,13.17,346.16,220410,,*2D
$GPGGA,095711.444,0534.5717,N,00012.5246,W,1,07,1.2,60.3,M,20.4,M,0.0,0000*58
$GPRMC,095711.444,A,0534.5717,N,00012.5246,W,12.06,346.34,220410,,*28
$GPGGA,095712.444,0534.5747,N,00012.5253,W,1,07,1.2,60.4,M,20.4,M,0.0,0000*5D
$GPRMC,095712.444,A,0534.5747,N,00012.5253,W,10.57,346.20,220410,,*29
$GPGGA,095713.444,0534.5772,N,00012.5259,W,1,07,1.2,60.6,M,20.4,M,0.0,0000*52
$GPRMC,095714.444,A,0534.5795,N,00012.5265,W,7.97,346.23,220410,,*1C
$GPGGA,095714.444,0534.5795,N,00012.5265,W,1,07,1.2,60.7,M,20.4,M,0.0,0000*52
$GPRMC,095714.444,A,0534.5795,N,00012.5265,W,7.97,346.23,220410,,*1C
$GPGGA,095715.444,0534.5812,N,00012.5269,W,1,07,1.2,61.0,M,20.4,M,0.0,0000*59
$GPRMC,095715.444,A,0534.5812,N,00012.5269,W,5.39,347.20,220410,,*15
$GPGGA,095716.444,0534.5824,N,00012.5271,W,1,07,1.2,61.1,M,20.4,M,0.0,0000*57
$GPRMC,095716.444,A,0534.5824,N,00012.5271,W,4.46,348.67,220410,,*1F
$GPGGA,095717.444,0534.5835,N,00012.5273,W,1,07,1.2,61.2,M,20.4,M,0.0,0000*57
$GPRMC,095718.444,A,0534.5846,N,00012.5276,W,4.63,344.65,220410,,*1B
$GPGGA,095718.444,0534.5846,N,00012.5276,W,1,07,1.2,61.3,M,20.4,M,0.0,0000*58
$GPRMC,095719.444,A,0534.5859,N,00012.5281,W,6.19,336.79,220410,,*1B
$GPGGA,095719.444,0534.5859,N,00012.5281,W,1,07,1.2,61.3,M,20.4,M,0.0,0000*5F
$GPRMC,095720.444,A,0534.5873,N,00012.5291,W,6.92,321.75,220410,,*11
$GPGGA,095720.444,0534.5873,N,00012.5291,W,1,07,1.2,61.4,M,20.4,M,0.0,0000*5B
$GPRMC,095721.444,A,0534.5887,N,00012.5306,W,8.18,305.23,220410,,*1D
$GPGGA,095721.444,0534.5887,N,00012.5306,W,1,07,1.2,61.5,M,20.4,M,0.0,0000*5F
$GPRMC,095722.444,A,0534.5896,N,00012.5329,W,9.33,285.72,220410,,*16
$GPGGA,095723.444,0534.5899,N,00012.5357,W,1,07,1.2,61.9,M,20.4,M,0.0,0000*5A
$GPRMC,095723.444,A,0534.5899,N,00012.5357,W,10.81,272.02,220410,,*2F
$GPGGA,095724.444,0534.5898,N,00012.5389,W,1,07,1.2,61.9,M,20.4,M,0.0,0000*5F
$GPRMC,095724.444,A,0534.5898,N,00012.5389,W,11.30,268.78,220410,,*27
$GPGGA,095725.444,0534.5896,N,00012.5421,W,1,07,1.2,62.1,M,20.4,M,0.0,0000*5E
$GPRMC,095726.444,A,0534.5897,N,00012.5452,W,10.79,276.35,220410,,*21
$GPGGA,095726.444,0534.5897,N,00012.5452,W,1,07,1.2,62.3,M,20.4,M,0.0,0000*5A
$GPRMC,095726.444,A,0534.5897,N,00012.5452,W,10.79,276.35,220410,,*21
$GPGGA,095727.444,0534.5903,N,00012.5484,W,1,07,1.2,62.4,M,20.4,M,0.0,0000*5B
$GPRMC,095728.443,A,0534.5919,N,00012.5516,W,13.38,302.10,220410,,*2D
$GPGGA,095728.443,0534.5919,N,00012.5516,W,1,07,1.2,62.6,M,20.4,M,0.0,0000*50
$GPRMC,095728.443,A,0534.5919,N,00012.5516,W,13.38,302.10,220410,,*2D
$GPGGA,095729.443,0534.5941,N,00012.5550,W,1,07,1.2,62.7,M,20.4,M,0.0,0000*5F
$GPRMC,095729.443,A,0534.5941,N,00012.5550,W,14.90,305.86,220410,,*2E
$GPGGA,095730.443,0534.5968,N,00012.5586,W,1,07,1.2,62.9,M,20.4,M,0.0,0000*59
$GPRMC,095730.443,A,0534.5968,N,00012.5586,W,16.12,306.55,220410,,*23
$GPGGA,095731.443,0534.5997,N,00012.5624,W,1,07,1.2,63.0,M,20.4,M,0.0,0000*5B
$GPRMC,095732.443,A,0534.6029,N,00012.5664,W,18.20,307.26,220410,,*2B
$GPGGA,095732.443,0534.6029,N,00012.5664,W,1,07,1.2,62.9,M,20.4,M,0.0,0000*5B
$GPRMC,095733.443,A,0534.6061,N,00012.5707,W,18.98,306.68,220410,,*2A
$GPGGA,095733.443,0534.6061,N,00012.5707,W,1,07,1.2,62.9,M,20.4,M,0.0,0000*52
$GPRMC,095734.443,A,0534.6094,N,00012.5750,W,18.94,306.67,220410,,*26
$GPGGA,095735.443,0534.6126,N,00012.5794,W,1,06,1.2,63.0,M,20.4,M,0.0,0000*55
$GPRMC,095735.443,A,0534.6126,N,00012.5794,W,18.70,306.25,220410,,*2B
$GPGGA,095736.443,0534.6157,N,00012.5836,W,1,05,2.0,63.2,M,20.4,M,0.0,0000*57
$GPRMC,095737.443,A,0534.6187,N,00012.5876,W,16.94,306.30,220410,,*21
$GPGGA,095737.443,0534.6187,N,00012.5876,W,1,05,2.0,63.3,M,20.4,M,0.0,0000*5E
$GPRMC,095738.443,A,0534.6213,N,00012.5914,W,15.28,305.85,220410,,*2C
$GPGGA,095738.443,0534.6213,N,00012.5914,W,1,07,1.2,63.4,M,20.4,M,0.0,0000*5E
$GPRMC,095738.443,A,0534.6213,N,00012.5914,W,15.28,305.85,220410,,*2C
$GPGGA,095739.443,0534.6236,N,00012.5949,W,1,07,1.2,63.7,M,20.4,M,0.0,0000*53
$GPRMC,095740.443,A,0534.6259,N,00012.5982,W,14.34,307.84,220410,,*2D
$GPGGA,095740.443,0534.6259,N,00012.5982,W,1,06,1.2,64.2,M,20.4,M,0.0,0000*50
$GPRMC,095740.443,A,0534.6259,N,00012.5982,W,14.34,307.84,220410,,*2D
$GPGGA,095741.443,0534.6281,N,00012.6013,W,1,05,1.4,64.6,M,20.4,M,0.0,0000*57
$GPRMC,095742.443,A,0534.6302,N,00012.6041,W,11.90,308.02,220410,,*2F
$GPGGA,095742.443,0534.6302,N,00012.6041,W,1,06,1.4,65.0,M,20.4,M,0.0,0000*5D
$GPRMC,095742.443,A,0534.6302,N,00012.6041,W,11.90,308.02,220410,,*2F
$GPGGA,095743.443,0534.6321,N,00012.6067,W,1,06,1.4,65.2,M,20.4,M,0.0,0000*5B
$GPRMC,095744.443,A,0534.6342,N,00012.6094,W,12.59,307.43,220410,,*29
$GPGGA,095744.443,0534.6342,N,00012.6094,W,1,07,1.2,65.3,M,20.4,M,0.0,0000*53
$GPRMC,095744.443,A,0534.6342,N,00012.6094,W,12.59,307.43,220410,,*29
$GPGGA,095745.443,0534.6363,N,00012.6121,W,1,07,1.2,65.3,M,20.4,M,0.0,0000*5E
$GPRMC,095746.443,A,0534.6382,N,00012.6147,W,10.91,305.34,220410,,*2C
$GPGGA,095746.443,0534.6382,N,00012.6147,W,1,07,1.2,65.3,M,20.4,M,0.0,0000*52
$GPRMC,095746.443,A,0534.6382,N,00012.6147,W,10.91,305.34,220410,,*2C
$GPGGA,095747.443,0534.6398,N,00012.6168,W,1,07,1.2,65.2,M,20.4,M,0.0,0000*54
$GPRMC,095748.443,A,0534.6410,N,00012.6185,W,7.02,305.21,220410,,*18
$GPGGA,095748.443,0534.6410,N,00012.6185,W,1,07,1.2,65.1,M,20.4,M,0.0,0000*5C
$GPRMC,095748.443,A,0534.6410,N,00012.6185,W,7.02,305.21,220410,,*18
$GPGGA,095749.443,0534.6421,N,00012.6199,W,1,07,1.2,65.1,M,20.4,M,0.0,0000*52
$GPRMC,095749.443,A,0534.6421,N,00012.6199,W,6.06,306.22,220410,,*13
$GPGGA,095750.442,0534.6430,N,00012.6211,W,1,07,1.2,65.1,M,20.4,M,0.0,0000*58
$GPRMC,095750.442,A,0534.6430,N,00012.6211,W,4.92,306.73,220410,,*12
$GPGGA,095751.442,0534.6434,N,00012.6218,W,1,07,1.2,65.2,M,20.4,M,0.0,0000*57
$GPRMC,095752.442,A,0534.6437,N,00012.6223,W,3.14,308.69,220410,,*1A
$GPGGA,095752.442,0534.6437,N,00012.6223,W,1,07,1.2,65.3,M,20.4,M,0.0,0000*5E
$GPRMC,095752.442,A,0534.6437,N,00012.6223,W,3.14,308.69,220410,,*1A
$GPGGA,095753.442,0534.6440,N,00012.6228,W,1,07,1.2,65.9,M,20.4,M,0.0,0000*5E
$GPRMC,095753.442,A,0534.6440,N,00012.6228,W,1.72,308.67,220410,,*1C
$GPGGA,095754.442,0534.6442,N,00012.6230,W,1,06,1.2,66.2,M,20.4,M,0.0,0000*5B
$GPRMC,095754.442,A,0534.6442,N,00012.6230,W,1.22,310.27,220410,,*18
$GPGGA,095755.442,0534.6443,N,00012.6232,W,1,06,1.2,66.6,M,20.4,M,0.0,0000*5D
$GPRMC,095755.442,A,0534.6443,N,00012.6232,W,0.93,310.13,220410,,*16
$GPGGA,095756.442,0534.6443,N,00012.6233,W,1,06,1.2,67.0,M,20.4,M,0.0,0000*58
$GPRMC,095757.442,A,0534.6443,N,00012.6234,W,0.48,314.24,220410,,*14
$GPGGA,095757.442,0534.6443,N,00012.6234,W,1,05,2.0,67.4,M,20.4,M,0.0,0000*58
$GPRMC,095758.442,A,0534.6443,N,00012.6234,W,0.30,309.08,220410,,*16
$GPGGA,095758.442,0534.6443,N,00012.6234,W,1,05,2.0,67.8,M,20.4,M,0.0,0000*5B
$GPRMC,095759.442,A,0534.6443,N,00012.6235,W,0.28,27.27,220410,,*2D
$GPGGA,095759.442,0534.6443,N,00012.6235,W,1,06,1.2,68.1,M,20.4,M,0.0,0000*5F
$GPRMC,095759.442,A,0534.6443,N,00012.6235,W,0.28,27.27,220410,,*2D
$GPGGA,095800.442,0534.6443,N,00012.6235,W,1,06,1.2,68.4,M,20.4,M,0.0,0000*59
$GPRMC,095801.442,A,0534.6443,N,00012.6235,W,0.09,27.10,220410,,*28
$GPGGA,095801.442,0534.6443,N,00012.6235,W,1,06,1.2,68.9,M,20.4,M,0.0,0000*55
$GPRMC,095802.442,A,0534.6442,N,00012.6235,W,0.08,315.94,220410,,*15
$GPGGA,095802.442,0534.6442,N,00012.6235,W,1,06,1.2,69.4,M,20.4,M,0.0,0000*5B
$GPRMC,095803.442,A,0534.6440,N,00012.6236,W,0.05,42.41,220410,,*21
$GPGGA,095803.442,0534.6440,N,00012.6236,W,1,06,1.2,70.1,M,20.4,M,0.0,0000*56
$GPRMC,095804.442,A,0534.6438,N,00012.6236,W,0.05,331.86,220410,,*15
$GPGGA,095804.442,0534.6438,N,00012.6236,W,1,06,1.2,70.8,M,20.4,M,0.0,0000*57
$GPRMC,095804.442,A,0534.6438,N,00012.6236,W,0.05,331.86,220410,,*15
$GPGGA,095805.442,0534.6436,N,00012.6237,W,1,06,1.2,71.5,M,20.4,M,0.0,0000*55
$GPRMC,095806.442,A,0534.6434,N,00012.6238,W,0.04,342.45,220410,,*1F
$GPGGA,095806.442,0534.6434,N,00012.6238,W,1,06,1.2,72.3,M,20.4,M,0.0,0000*5E
$GPRMC,095807.442,A,0534.6433,N,00012.6239,W,0.05,253.70,220410,,*1E
$GPGGA,095807.442,0534.6433,N,00012.6239,W,1,06,1.2,73.0,M,20.4,M,0.0,0000*5B
$GPRMC,095808.442,A,0534.6433,N,00012.6239,W,0.07,16.68,220410,,*29
$GPGGA,095808.442,0534.6433,N,00012.6239,W,1,06,1.2,73.3,M,20.4,M,0.0,0000*57
$GPRMC,095809.442,A,0534.6435,N,00012.6239,W,0.04,350.84,220410,,*1E
$GPGGA,095809.442,0534.6435,N,00012.6239,W,1,06,1.2,73.2,M,20.4,M,0.0,0000*51
$GPRMC,095810.442,A,0534.6437,N,00012.6238,W,0.11,3.61,220410,,*1F
$GPGGA,095810.442,0534.6437,N,00012.6238,W,1,06,1.2,72.8,M,20.4,M,0.0,0000*51
$GPRMC,095811.442,A,0534.6440,N,00012.6238,W,0.07,326.81,220410,,*13
$GPGGA,095811.442,0534.6440,N,00012.6238,W,1,06,1.2,72.4,M,20.4,M,0.0,0000*5C
$GPRMC,095812.441,A,0534.6441,N,00012.6237,W,0.06,332.32,220410,,*11
$GPGGA,095812.441,0534.6441,N,00012.6237,W,1,06,1.2,72.1,M,20.4,M,0.0,0000*57
$GPRMC,095813.441,A,0534.6442,N,00012.6236,W,0.06,7.45,220410,,*17
$GPGGA,095813.441,0534.6442,N,00012.6236,W,1,06,1.2,72.0,M,20.4,M,0.0,0000*55
$GPRMC,095814.441,A,0534.6442,N,00012.6236,W,0.08,351.32,220410,,*1E
$GPGGA,095814.441,0534.6442,N,00012.6236,W,1,06,1.2,72.1,M,20.4,M,0.0,0000*53
$GPRMC,095815.441,A,0534.6443,N,00012.6235,W,0.09,312.94,220410,,*17
$GPGGA,095815.441,0534.6443,N,00012.6235,W,1,06,1.2,72.1,M,20.4,M,0.0,0000*50
$GPRMC,095816.441,A,0534.6444,N,00012.6235,W,0.22,322.59,220410,,*18
$GPGGA,095816.441,0534.6444,N,00012.6235,W,1,06,1.2,72.4,M,20.4,M,0.0,0000*51
$GPRMC,095818.441,A,0534.6445,N,00012.6236,W,0.84,310.94,220410,,*18
$GPGGA,095818.441,0534.6445,N,00012.6236,W,1,06,1.2,72.8,M,20.4,M,0.0,0000*51
$GPRMC,095819.441,A,0534.6447,N,00012.6239,W,1.59,308.72,220410,,*14
$GPGGA,095819.441,0534.6447,N,00012.6239,W,1,06,1.2,72.8,M,20.4,M,0.0,0000*5D
$GPRMC,095820.441,A,0534.6448,N,00012.6242,W,1.61,309.90,220410,,*1B
$GPGGA,095820.441,0534.6448,N,00012.6242,W,1,06,1.2,72.9,M,20.4,M,0.0,0000*55
$GPRMC,095821.441,A,0534.6451,N,00012.6247,W,2.41,307.40,220410,,*15
$GPGGA,095821.441,0534.6451,N,00012.6247,W,1,06,1.2,72.9,M,20.4,M,0.0,0000*59
$GPRMC,095821.441,A,0534.6451,N,00012.6247,W,2.41,307.40,220410,,*15
$GPGGA,095822.441,0534.6454,N,00012.6253,W,1,06,1.2,72.6,M,20.4,M,0.0,0000*55
$GPRMC,095823.441,A,0534.6458,N,00012.6259,W,3.10,304.92,220410,,*18
$GPGGA,095823.441,0534.6458,N,00012.6259,W,1,06,1.2,72.4,M,20.4,M,0.0,0000*50
$GPRMC,095824.441,A,0534.6464,N,00012.6268,W,4.33,305.85,220410,,*13
$GPGGA,095824.441,0534.6464,N,00012.6268,W,1,06,1.2,72.2,M,20.4,M,0.0,0000*5C
$GPRMC,095825.441,A,0534.6472,N,00012.6279,W,5.02,307.09,220410,,*10
$GPGGA,095825.441,0534.6472,N,00012.6279,W,1,06,1.2,72.2,M,20.4,M,0.0,0000*5A
$GPRMC,095825.441,A,0534.6472,N,00012.6279,W,5.02,307.09,220410,,*10
$GPGGA,095826.441,0534.6480,N,00012.6289,W,1,05,2.0,72.2,M,20.4,M,0.0,0000*59
$GPRMC,095827.441,A,0534.6489,N,00012.6299,W,4.15,303.93,220410,,*18
$GPGGA,095827.441,0534.6489,N,00012.6299,W,1,07,1.2,71.9,M,20.4,M,0.0,0000*5B
$GPRMC,095827.441,A,0534.6489,N,00012.6299,W,4.15,303.93,220410,,*18
$GPGGA,095828.441,0534.6497,N,00012.6311,W,1,07,1.2,72.1,M,20.4,M,0.0,0000*51
$GPRMC,095829.441,A,0534.6506,N,00012.6325,W,6.15,305.21,220410,,*1B
$GPGGA,095829.441,0534.6506,N,00012.6325,W,1,07,1.2,72.0,M,20.4,M,0.0,0000*5F
$GPRMC,095829.441,A,0534.6506,N,00012.6325,W,6.15,305.21,220410,,*1B
$GPGGA,095830.441,0534.6517,N,00012.6342,W,1,07,1.2,71.9,M,20.4,M,0.0,0000*5C
$GPRMC,095830.441,A,0534.6517,N,00012.6342,W,7.70,307.12,220410,,*12
$GPGGA,095831.441,0534.6532,N,00012.6361,W,1,07,1.2,71.6,M,20.4,M,0.0,0000*54
$GPRMC,095832.441,A,0534.6550,N,00012.6383,W,9.87,308.94,220410,,*19
$GPGGA,095832.441,0534.6550,N,00012.6383,W,1,07,1.2,71.2,M,20.4,M,0.0,0000*5B
$GPRMC,095832.441,A,0534.6550,N,00012.6383,W,9.87,308.94,220410,,*19
$GPGGA,095833.440,0534.6569,N,00012.6405,W,1,07,1.2,70.7,M,20.4,M,0.0,0000*5C
$GPRMC,095833.440,A,0534.6569,N,00012.6405,W,10.12,309.30,220410,,*21
$GPGGA,095834.440,0534.6589,N,00012.6429,W,1,07,1.2,70.2,M,20.4,M,0.0,0000*5E
$GPRMC,095835.440,A,0534.6610,N,00012.6455,W,12.03,307.57,220410,,*22
$GPGGA,095835.440,0534.6610,N,00012.6455,W,1,07,1.2,69.8,M,20.4,M,0.0,0000*55
$GPRMC,095835.440,A,0534.6610,N,00012.6455,W,12.03,307.57,220410,,*22
$GPGGA,095836.440,0534.6630,N,00012.6481,W,1,07,1.2,69.3,M,20.4,M,0.0,0000*56
$GPRMC,095836.440,A,0534.6630,N,00012.6481,W,10.84,307.78,220410,,*2A
$GPGGA,095837.440,0534.6647,N,00012.6503,W,1,07,1.2,68.7,M,20.4,M,0.0,0000*59
$GPRMC,095838.440,A,0534.6662,N,00012.6522,W,7.90,306.68,220410,,*18
$GPGGA,095838.440,0534.6662,N,00012.6522,W,1,07,1.2,68.1,M,20.4,M,0.0,0000*54
$GPRMC,095838.440,A,0534.6662,N,00012.6522,W,7.90,306.68,220410,,*18
$GPGGA,095839.440,0534.6675,N,00012.6538,W,1,07,1.2,67.6,M,20.4,M,0.0,0000*50
$GPRMC,095839.440,A,0534.6675,N,00012.6538,W,6.59,306.48,220410,,*12
$GPGGA,095840.440,0534.6684,N,00012.6550,W,1,07,1.2,67.2,M,20.4,M,0.0,0000*5A
$GPRMC,095841.440,A,0534.6690,N,00012.6557,W,2.98,306.56,220410,,*19
$GPGGA,095841.440,0534.6690,N,00012.6557,W,1,07,1.2,66.9,M,20.4,M,0.0,0000*53
$GPRMC,095842.440,A,0534.6695,N,00012.6562,W,2.88,306.74,220410,,*18
$GPGGA,095842.440,0534.6695,N,00012.6562,W,1,07,1.2,66.6,M,20.4,M,0.0,0000*5C
$GPRMC,095842.440,A,0534.6695,N,00012.6562,W,2.88,306.74,220410,,*18
$GPGGA,095843.440,0534.6700,N,00012.6568,W,1,07,1.2,66.4,M,20.4,M,0.0,0000*58
$GPRMC,095843.440,A,0534.6700,N,00012.6568,W,2.78,307.32,220410,,*12
$GPGGA,095844.440,0534.6703,N,00012.6573,W,1,07,1.2,66.2,M,20.4,M,0.0,0000*50
$GPRMC,095845.440,A,0534.6707,N,00012.6578,W,2.76,305.88,220410,,*1F
$GPGGA,095845.440,0534.6707,N,00012.6578,W,1,07,1.2,66.0,M,20.4,M,0.0,0000*5C
$GPRMC,095845.440,A,0534.6707,N,00012.6578,W,2.76,305.88,220410,,*1F
$GPGGA,095846.440,0534.6712,N,00012.6584,W,1,07,1.2,65.8,M,20.4,M,0.0,0000*53
$GPRMC,095846.440,A,0534.6712,N,00012.6584,W,3.10,306.52,220410,,*1E
$GPGGA,095847.440,0534.6717,N,00012.6590,W,1,07,1.2,65.7,M,20.4,M,0.0,0000*5D
$GPRMC,095848.440,A,0534.6721,N,00012.6595,W,2.26,306.25,220410,,*14
$GPGGA,095848.440,0534.6721,N,00012.6595,W,1,07,1.2,65.5,M,20.4,M,0.0,0000*50
$GPRMC,095848.440,A,0534.6721,N,00012.6595,W,2.26,306.25,220410,,*14
$GPGGA,095849.440,0534.6723,N,00012.6599,W,1,07,1.2,65.4,M,20.4,M,0.0,0000*5E
$GPRMC,095849.440,A,0534.6723,N,00012.6599,W,1.49,309.35,220410,,*1F
$GPGGA,095850.440,0534.6724,N,00012.6601,W,1,07,1.2,65.4,M,20.4,M,0.0,0000*53
$GPRMC,095851.440,A,0534.6724,N,00012.6602,W,0.39,308.89,220410,,*10
$GPGGA,095851.440,0534.6724,N,00012.6602,W,1,07,1.2,65.3,M,20.4,M,0.0,0000*56
$GPRMC,095852.440,A,0534.6723,N,00012.6602,W,0.03,354.38,220410,,*1E
$GPGGA,095852.440,0534.6723,N,00012.6602,W,1,07,1.2,65.2,M,20.4,M,0.0,0000*53
$GPRMC,095852.440,A,0534.6723,N,00012.6602,W,0.03,354.38,220410,,*1E
$GPGGA,095853.440,0534.6722,N,00012.6603,W,1,07,1.2,65.1,M,20.4,M,0.0,0000*51
$GPRMC,095853.440,A,0534.6722,N,00012.6603,W,0.03,348.37,220410,,*1D
$GPGGA,095854.440,0534.6722,N,00012.6603,W,1,07,1.2,64.9,M,20.4,M,0.0,0000*5F
$GPRMC,095855.439,A,0534.6721,N,00012.6604,W,0.02,273.39,220410,,*17
$GPGGA,095855.439,0534.6721,N,00012.6604,W,1,07,1.2,64.7,M,20.4,M,0.0,0000*5A
$GPRMC,095855.439,A,0534.6721,N,00012.6604,W,0.02,273.39,220410,,*17
$GPGGA,095856.439,0534.6720,N,00012.6604,W,1,07,1.2,64.4,M,20.4,M,0.0,0000*5B
$GPRMC,095856.439,A,0534.6720,N,00012.6604,W,0.04,25.40,220410,,*2C
$GPGGA,095857.439,0534.6719,N,00012.6605,W,1,07,1.2,64.2,M,20.4,M,0.0,0000*57
$GPRMC,095857.439,A,0534.6719,N,00012.6605,W,0.03,5.16,220410,,*10
$GPGGA,095858.439,0534.6719,N,00012.6605,W,1,07,1.2,64.0,M,20.4,M,0.0,0000*5A
$GPRMC,095858.439,A,0534.6719,N,00012.6605,W,0.04,33.16,220410,,*2D
$GPGGA,095859.439,0534.6718,N,00012.6606,W,1,07,1.2,63.9,M,20.4,M,0.0,0000*57
$GPRMC,095859.439,A,0534.6718,N,00012.6606,W,0.06,9.34,220410,,*15
$GPGGA,095900.439,0534.6717,N,00012.6606,W,1,07,1.2,63.9,M,20.4,M,0.0,0000*55
$GPRMC,095900.439,A,0534.6717,N,00012.6606,W,0.05,348.17,220410,,*13
$GPGGA,095901.439,0534.6716,N,00012.6606,W,1,07,1.2,63.9,M,20.4,M,0.0,0000*55
$GPRMC,095902.439,A,0534.6715,N,00012.6606,W,0.03,22.51,220410,,*28
$GPGGA,095902.439,0534.6715,N,00012.6606,W,1,07,1.2,63.9,M,20.4,M,0.0,0000*55
$GPRMC,095902.439,A,0534.6715,N,00012.6606,W,0.03,22.51,220410,,*28
$GPGGA,095903.439,0534.6714,N,00012.6606,W,1,07,1.2,63.9,M,20.4,M,0.0,0000*55
$GPRMC,095903.439,A,0534.6714,N,00012.6606,W,0.02,14.24,220410,,*2E
$GPGGA,095904.439,0534.6714,N,00012.6606,W,1,08,1.0,63.7,M,20.4,M,0.0,0000*51
$GPRMC,095904.439,A,0534.6714,N,00012.6606,W,0.06,0.36,220410,,*1B
$GPGGA,095905.439,0534.6713,N,00012.6605,W,1,08,1.0,63.5,M,20.4,M,0.0,0000*56
$GPRMC,095905.439,A,0534.6713,N,00012.6605,W,0.06,14.41,220410,,*2B
$GPGGA,095906.439,0534.6712,N,00012.6605,W,1,08,1.0,63.4,M,20.4,M,0.0,0000*55
$GPRMC,095906.439,A,0534.6712,N,00012.6605,W,0.03,337.97,220410,,*15
$GPGGA,095907.439,0534.6711,N,00012.6605,W,1,08,1.0,63.4,M,20.4,M,0.0,0000*57
$GPRMC,095907.439,A,0534.6711,N,00012.6605,W,0.05,31.29,220410,,*21
$GPGGA,095908.439,0534.6710,N,00012.6606,W,1,08,1.0,63.5,M,20.4,M,0.0,0000*5B
$GPRMC,095908.439,A,0534.6710,N,00012.6606,W,0.04,331.38,220410,,*1E
$GPGGA,095909.439,0534.6709,N,00012.6606,W,1,08,1.0,63.5,M,20.4,M,0.0,0000*52
$GPRMC,095909.439,A,0534.6709,N,00012.6606,W,0.06,340.41,220410,,*1D
$GPGGA,095910.439,0534.6709,N,00012.6607,W,1,08,1.0,63.4,M,20.4,M,0.0,0000*5A
$GPRMC,095911.439,A,0534.6708,N,00012.6607,W,0.02,18.95,220410,,*27
$GPGGA,095911.439,0534.6708,N,00012.6607,W,1,08,1.0,63.3,M,20.4,M,0.0,0000*5D
$GPRMC,095911.439,A,0534.6708,N,00012.6607,W,0.02,18.95,220410,,*27
$GPGGA,095912.439,0534.6708,N,00012.6607,W,1,08,1.0,63.3,M,20.4,M,0.0,0000*5E
$GPRMC,095912.439,A,0534.6708,N,00012.6607,W,0.03,12.94,220410,,*2E
$GPGGA,095913.439,0534.6709,N,00012.6608,W,1,08,1.0,63.3,M,20.4,M,0.0,0000*51
$GPRMC,095914.439,A,0534.6709,N,00012.6609,W,0.03,8.20,220410,,*13
$GPGGA,095914.439,0534.6709,N,00012.6609,W,1,08,1.0,63.3,M,20.4,M,0.0,0000*57
$GPRMC,095915.439,A,0534.6710,N,00012.6610,W,0.03,13.54,220410,,*2B
$GPGGA,095915.439,0534.6710,N,00012.6610,W,1,08,1.0,63.4,M,20.4,M,0.0,0000*51
$GPRMC,095915.439,A,0534.6710,N,00012.6610,W,0.03,13.54,220410,,*2B
$GPGGA,095916.439,0534.6710,N,00012.6611,W,1,08,1.0,63.5,M,20.4,M,0.0,0000*52
$GPRMC,095916.439,A,0534.6710,N,00012.6611,W,0.03,345.69,220410,,*17
$GPGGA,095917.438,0534.6711,N,00012.6613,W,1,08,1.0,63.9,M,20.4,M,0.0,0000*5D
$GPRMC,095917.438,A,0534.6711,N,00012.6613,W,0.05,345.37,220410,,*19
$GPGGA,095918.438,0534.6711,N,00012.6615,W,1,08,1.0,64.2,M,20.4,M,0.0,0000*58
$GPRMC,095918.438,A,0534.6711,N,00012.6615,W,0.04,5.88,220410,,*12
$GPGGA,095919.438,0534.6711,N,00012.6616,W,1,08,1.0,64.6,M,20.4,M,0.0,0000*5E
$GPRMC,095919.438,A,0534.6711,N,00012.6616,W,0.04,26.30,220410,,*22
$GPGGA,095920.438,0534.6712,N,00012.6618,W,1,08,1.0,65.0,M,20.4,M,0.0,0000*5E
$GPRMC,095920.438,A,0534.6712,N,00012.6618,W,0.05,36.21,220410,,*25
$GPGGA,095921.438,0534.6712,N,00012.6620,W,1,08,1.0,65.2,M,20.4,M,0.0,0000*56
$GPRMC,095922.438,A,0534.6712,N,00012.6621,W,0.03,13.55,220410,,*2F
$GPGGA,095922.438,0534.6712,N,00012.6621,W,1,08,1.0,65.2,M,20.4,M,0.0,0000*54
$GPRMC,095922.438,A,0534.6712,N,00012.6621,W,0.03,13.55,220410,,*2F
$GPGGA,095923.438,0534.6712,N,00012.6621,W,1,08,1.0,65.3,M,20.4,M,0.0,0000*54
$GPRMC,095923.438,A,0534.6712,N,00012.6621,W,0.01,5.73,220410,,*1F
$GPGGA,095924.438,0534.6714,N,00012.6621,W,1,08,1.0,65.6,M,20.4,M,0.0,0000*50
$GPRMC,095925.438,A,0534.6715,N,00012.6620,W,0.03,186.36,220410,,*16
$GPGGA,095925.438,0534.6715,N,00012.6620,W,1,07,1.2,65.7,M,20.4,M,0.0,0000*5D
$GPRMC,095925.438,A,0534.6715,N,00012.6620,W,0.03,186.36,220410,,*16
$GPGGA,095926.438,0534.6717,N,00012.6619,W,1,08,1.0,66.1,M,20.4,M,0.0,0000*5E
$GPRMC,095927.438,A,0534.6719,N,00012.6618,W,0.02,318.85,220410,,*1F
$GPGGA,095927.438,0534.6719,N,00012.6618,W,1,07,1.0,66.6,M,20.4,M,0.0,0000*58
$GPRMC,095928.438,A,0534.6719,N,00012.6617,W,0.08,51.55,220410,,*26
$GPGGA,095928.438,0534.6719,N,00012.6617,W,1,08,1.0,66.8,M,20.4,M,0.0,0000*59
$GPRMC,095930.438,A,0534.6716,N,00012.6615,W,0.04,10.57,220410,,*29
$GPGGA,095930.438,0534.6716,N,00012.6615,W,1,08,1.0,67.4,M,20.4,M,0.0,0000*50
$GPRMC,095931.438,A,0534.6715,N,00012.6614,W,0.10,313.56,220410,,*1E
$GPGGA,095931.438,0534.6715,N,00012.6614,W,1,08,1.0,67.3,M,20.4,M,0.0,0000*54
$GPRMC,095931.438,A,0534.6715,N,00012.6614,W,0.10,313.56,220410,,*1E
$GPGGA,095932.438,0534.6715,N,00012.6613,W,1,08,1.0,67.2,M,20.4,M,0.0,0000*51
$GPRMC,095932.438,A,0534.6715,N,00012.6613,W,0.54,308.31,220410,,*11
$GPGGA,095933.438,0534.6716,N,00012.6615,W,1,08,1.0,67.3,M,20.4,M,0.0,0000*54
$GPRMC,095933.438,A,0534.6716,N,00012.6615,W,1.48,308.55,220410,,*1B
$GPGGA,095934.438,0534.6718,N,00012.6620,W,1,08,1.0,67.8,M,20.4,M,0.0,0000*50
$GPRMC,095935.438,A,0534.6724,N,00012.6627,W,3.51,307.82,220410,,*12
$GPGGA,095935.438,0534.6724,N,00012.6627,W,1,08,1.0,68.3,M,20.4,M,0.0,0000*5D
$GPRMC,095935.438,A,0534.6724,N,00012.6627,W,3.51,307.82,220410,,*12
$GPGGA,095936.438,0534.6732,N,00012.6636,W,1,07,1.0,68.6,M,20.4,M,0.0,0000*53
$GPRMC,095936.438,A,0534.6732,N,00012.6636,W,5.32,308.57,220410,,*12
$GPGGA,095937.438,0534.6744,N,00012.6650,W,1,07,1.0,68.5,M,20.4,M,0.0,0000*50
$GPRMC,095937.438,A,0534.6744,N,00012.6650,W,7.22,308.87,220410,,*1C
$GPGGA,095938.438,0534.6759,N,00012.6666,W,1,08,1.0,68.3,M,20.4,M,0.0,0000*5F
$GPRMC,095938.438,A,0534.6759,N,00012.6666,W,7.44,308.72,220410,,*10
$GPGGA,095939.438,0534.6774,N,00012.6681,W,1,08,1.0,68.0,M,20.4,M,0.0,0000*5B
$GPRMC,095939.438,A,0534.6774,N,00012.6681,W,7.45,308.75,220410,,*11
$GPGGA,095940.437,0534.6789,N,00012.6697,W,1,08,1.0,67.7,M,20.4,M,0.0,0000*57
$GPRMC,095941.437,A,0534.6804,N,00012.6714,W,8.32,306.95,220410,,*1B
$GPGGA,095941.437,0534.6804,N,00012.6714,W,1,08,1.0,67.3,M,20.4,M,0.0,0000*52
$GPRMC,095941.437,A,0534.6804,N,00012.6714,W,8.32,306.95,220410,,*1B
$GPGGA,095942.437,0534.6820,N,00012.6732,W,1,07,1.0,66.8,M,20.4,M,0.0,0000*56
$GPRMC,095943.437,A,0534.6836,N,00012.6751,W,8.76,306.53,220410,,*13
$GPGGA,095943.437,0534.6836,N,00012.6751,W,1,07,1.0,66.2,M,20.4,M,0.0,0000*5F
$GPRMC,095944.437,A,0534.6850,N,00012.6768,W,7.77,307.18,220410,,*1E
$GPGGA,095944.437,0534.6850,N,00012.6768,W,1,07,1.0,65.7,M,20.4,M,0.0,0000*54
$GPRMC,095944.437,A,0534.6850,N,00012.6768,W,7.77,307.18,220410,,*1E
$GPGGA,095945.437,0534.6864,N,00012.6785,W,1,08,1.0,65.2,M,20.4,M,0.0,0000*5B
$GPRMC,095946.437,A,0534.6876,N,00012.6801,W,7.47,306.69,220410,,*1C
$GPGGA,095946.437,0534.6876,N,00012.6801,W,1,07,1.0,64.7,M,20.4,M,0.0,0000*53
$GPRMC,095947.437,A,0534.6889,N,00012.6817,W,7.55,306.44,220410,,*16
$GPGGA,095948.437,0534.6902,N,00012.6834,W,1,07,1.0,64.3,M,20.4,M,0.0,0000*5D
$GPRMC,095949.437,A,0534.6916,N,00012.6852,W,8.30,306.47,220410,,*11
$GPGGA,095949.437,0534.6916,N,00012.6852,W,1,07,1.0,64.3,M,20.4,M,0.0,0000*59
$GPRMC,095950.437,A,0534.6931,N,00012.6870,W,8.64,307.11,220410,,*1F
$GPGGA,095950.437,0534.6931,N,00012.6870,W,1,07,1.0,64.1,M,20.4,M,0.0,0000*56
$GPRMC,095951.437,A,0534.6946,N,00012.6890,W,8.99,307.47,220410,,*11
$GPGGA,095951.437,0534.6946,N,00012.6890,W,1,08,1.0,63.8,M,20.4,M,0.0,0000*58
$GPRMC,095952.437,A,0534.6961,N,00012.6909,W,9.05,307.57,220410,,*13
$GPGGA,095953.437,0534.6977,N,00012.6929,W,1,08,1.0,63.3,M,20.4,M,0.0,0000*50
$GPRMC,095953.437,A,0534.6977,N,00012.6929,W,9.11,307.50,220410,,*15
$GPGGA,095954.437,0534.6993,N,00012.6948,W,1,08,1.0,63.2,M,20.4,M,0.0,0000*5B
$GPRMC,095954.437,A,0534.6993,N,00012.6948,W,9.03,308.32,220410,,*17
$GPGGA,095955.437,0534.7009,N,00012.6968,W,1,08,1.0,63.0,M,20.4,M,0.0,0000*51
$GPRMC,095955.437,A,0534.7009,N,00012.6968,W,9.42,307.44,220410,,*14
$GPGGA,095956.437,0534.7026,N,00012.6991,W,1,08,1.0,62.9,M,20.4,M,0.0,0000*51
$GPRMC,095956.437,A,0534.7026,N,00012.6991,W,10.81,307.10,220410,,*2A
$GPGGA,095957.437,0534.7045,N,00012.7017,W,1,08,1.0,63.0,M,20.4,M,0.0,0000*5B
$GPRMC,095957.437,A,0534.7045,N,00012.7017,W,12.62,306.73,220410,,*23
$GPGGA,095958.437,0534.7066,N,00012.7047,W,1,07,1.0,62.9,M,20.4,M,0.0,0000*57
$GPRMC,095958.437,A,0534.7066,N,00012.7047,W,13.21,307.44,220410,,*2B
$GPGGA,095959.437,0534.7089,N,00012.7077,W,1,08,1.0,62.8,M,20.4,M,0.0,0000*5A
