                             GD30L MMC DATA LOGGER
+-----------------------------------------------------------------------------+
  UPDATE rate: 01 second(s)
  RECORD sentence(s): RMC, GGA
+-----------------------------------------------------------------------------+
$GPRMC,110002.089,A,0533.9129,N,00015.5684,W,13.15,36.73,220410,,*1D
$GPGGA,110002.089,0533.9129,N,00015.5684,W,1,08,1.0,75.0,M,20.4,M,0.0,0000*53
$GPRMC,110003.089,A,0533.9158,N,00015.5662,W,13.04,37.88,220410,,*17
$GPGGA,110003.089,0533.9158,N,00015.5662,W,1,08,1.0,75.2,M,20.4,M,0.0,0000*5E
$GPRMC,110004.089,A,0533.9187,N,00015.5639,W,13.28,38.13,220410,,*1F
$GPGGA,110004.089,0533.9187,N,00015.5639,W,1,09,0.8,75.4,M,20.4,M,0.0,0000*5B
$GPRMC,110005.089,A,0533.9217,N,00015.5616,W,13.32,36.60,220410,,*18
$GPGGA,110005.089,0533.9217,N,00015.5616,W,1,09,0.8,75.5,M,20.4,M,0.0,0000*5C
$GPRMC,110006.089,A,0533.9247,N,00015.5594,W,13.03,36.28,220410,,*19
$GPGGA,110006.089,0533.9247,N,00015.5594,W,1,09,0.8,75.6,M,20.4,M,0.0,0000*50
$GPRMC,110007.089,A,0533.9276,N,00015.5572,W,13.10,35.93,220410,,*13
$GPGGA,110007.089,0533.9276,N,00015.5572,W,1,09,0.8,75.6,M,20.4,M,0.0,0000*5B
$GPRMC,110008.088,A,0533.9307,N,00015.5551,W,13.59,34.50,220410,,*18
$GPGGA,110008.088,0533.9307,N,00015.5551,W,1,09,0.8,75.6,M,20.4,M,0.0,0000*53
$GPRMC,110009.088,A,0533.9339,N,00015.5529,W,13.58,34.23,220410,,*1E
$GPGGA,110009.088,0533.9339,N,00015.5529,W,1,09,0.8,75.7,M,20.4,M,0.0,0000*51
$GPRMC,110010.088,A,0533.9370,N,00015.5508,W,13.03,33.80,220410,,*18
$GPGGA,110010.088,0533.9370,N,00015.5508,W,1,08,1.0,75.8,M,20.4,M,0.0,0000*50
$GPRMC,110011.088,A,0533.9400,N,00015.5488,W,12.54,33.46,220410,,*19
$GPGGA,110011.088,0533.9400,N,00015.5488,W,1,08,1.0,75.9,M,20.4,M,0.0,0000*59
$GPRMC,110012.088,A,0533.9428,N,00015.5469,W,11.94,33.55,220410,,*12
$GPGGA,110012.088,0533.9428,N,00015.5469,W,1,09,0.8,75.7,M,20.4,M,0.0,0000*59
$GPRMC,110013.088,A,0533.9455,N,00015.5450,W,11.66,35.51,220410,,*1C
$GPGGA,110013.088,0533.9455,N,00015.5450,W,1,09,0.8,75.4,M,20.4,M,0.0,0000*5B
$GPRMC,110014.088,A,0533.9481,N,00015.5431,W,11.65,37.84,220410,,*1C
$GPGGA,110014.088,0533.9481,N,00015.5431,W,1,09,0.8,75.2,M,20.4,M,0.0,0000*54
$GPRMC,110015.088,A,0533.9507,N,00015.5410,W,12.20,37.65,220410,,*1C
$GPGGA,110015.088,0533.9507,N,00015.5410,W,1,09,0.8,75.1,M,20.4,M,0.0,0000*5A
$GPRMC,110016.088,A,0533.9534,N,00015.5388,W,12.92,36.61,220410,,*15
$GPGGA,110016.088,0533.9534,N,00015.5388,W,1,09,0.8,75.1,M,20.4,M,0.0,0000*5F
$GPRMC,110017.088,A,0533.9562,N,00015.5367,W,12.16,37.41,220410,,*19
$GPGGA,110017.088,0533.9562,N,00015.5367,W,1,09,0.8,75.1,M,20.4,M,0.0,0000*5C
$GPRMC,110018.088,A,0533.9586,N,00015.5348,W,10.15,37.43,220410,,*12
$GPGGA,110018.088,0533.9586,N,00015.5348,W,1,09,0.8,75.1,M,20.4,M,0.0,0000*54
$GPRMC,110019.088,A,0533.9605,N,00015.5333,W,7.30,37.10,220410,,*20
$GPGGA,110019.088,0533.9605,N,00015.5333,W,1,09,0.8,75.1,M,20.4,M,0.0,0000*51
$GPRMC,110020.088,A,0533.9617,N,00015.5323,W,4.63,35.83,220410,,*25
$GPGGA,110020.088,0533.9617,N,00015.5323,W,1,09,0.8,75.1,M,20.4,M,0.0,0000*59
$GPRMC,110021.088,A,0533.9626,N,00015.5316,W,4.11,35.02,220410,,*2C
$GPGGA,110021.088,0533.9626,N,00015.5316,W,1,08,1.0,75.0,M,20.4,M,0.0,0000*55
$GPRMC,110022.088,A,0533.9635,N,00015.5309,W,4.98,35.28,220410,,*2A
$GPGGA,110022.088,0533.9635,N,00015.5309,W,1,08,1.0,74.9,M,20.4,M,0.0,0000*52
$GPRMC,110023.088,A,0533.9648,N,00015.5300,W,6.62,35.34,220410,,*22
$GPGGA,110023.088,0533.9648,N,00015.5300,W,1,08,1.0,74.8,M,20.4,M,0.0,0000*51
$GPRMC,110024.088,A,0533.9664,N,00015.5288,W,7.72,36.21,220410,,*2D
$GPGGA,110024.088,0533.9664,N,00015.5288,W,1,08,1.0,74.8,M,20.4,M,0.0,0000*59
$GPRMC,110025.088,A,0533.9682,N,00015.5275,W,8.78,38.10,220410,,*2F
$GPGGA,110025.088,0533.9682,N,00015.5275,W,1,08,1.0,74.8,M,20.4,M,0.0,0000*52
$GPRMC,110026.088,A,0533.9702,N,00015.5259,W,9.75,38.63,220410,,*23
$GPGGA,110026.088,0533.9702,N,00015.5259,W,1,08,1.0,74.9,M,20.4,M,0.0,0000*57
$GPRMC,110027.088,A,0533.9724,N,00015.5242,W,10.17,38.94,220410,,*18
$GPGGA,110027.088,0533.9724,N,00015.5242,W,1,08,1.0,75.1,M,20.4,M,0.0,0000*51
$GPRMC,110028.088,A,0533.9747,N,00015.5224,W,10.48,38.15,220410,,*11
$GPGGA,110028.088,0533.9747,N,00015.5224,W,1,08,1.0,75.2,M,20.4,M,0.0,0000*58
$GPRMC,110029.088,A,0533.9771,N,00015.5207,W,10.87,36.08,220410,,*15
$GPGGA,110029.088,0533.9771,N,00015.5207,W,1,07,1.2,75.2,M,20.4,M,0.0,0000*50
$GPRMC,110030.088,A,0533.9796,N,00015.5189,W,11.27,35.15,220410,,*15
$GPGGA,110030.088,0533.9796,N,00015.5189,W,1,08,1.0,75.0,M,20.4,M,0.0,0000*5B
$GPRMC,110031.088,A,0533.9823,N,00015.5171,W,11.50,34.80,220410,,*1F
$GPGGA,110031.088,0533.9823,N,00015.5171,W,1,07,1.2,74.7,M,20.4,M,0.0,0000*57
$GPRMC,110032.088,A,0533.9849,N,00015.5153,W,11.51,34.55,220410,,*19
$GPGGA,110032.088,0533.9849,N,00015.5153,W,1,08,1.0,74.4,M,20.4,M,0.0,0000*56
$GPRMC,110033.087,A,0533.9876,N,00015.5135,W,11.58,34.91,220410,,*1A
$GPGGA,110033.087,0533.9876,N,00015.5135,W,1,08,1.0,74.4,M,20.4,M,0.0,0000*54
$GPRMC,110034.087,A,0533.9904,N,00015.5116,W,12.36,34.81,220410,,*12
$GPGGA,110034.087,0533.9904,N,00015.5116,W,1,08,1.0,74.5,M,20.4,M,0.0,0000*57
$GPRMC,110035.087,A,0533.9933,N,00015.5096,W,12.50,37.59,220410,,*18
$GPGGA,110035.087,0533.9933,N,00015.5096,W,1,09,0.8,74.5,M,20.4,M,0.0,0000*53
$GPRMC,110036.087,A,0533.9961,N,00015.5075,W,12.54,37.22,220410,,*19
$GPGGA,110036.087,0533.9961,N,00015.5075,W,1,08,1.0,74.5,M,20.4,M,0.0,0000*52
$GPRMC,110037.087,A,0533.9991,N,00015.5053,W,13.39,37.00,220410,,*19
$GPGGA,110037.087,0533.9991,N,00015.5053,W,1,09,0.8,74.4,M,20.4,M,0.0,0000*51
$GPRMC,110038.087,A,0534.0023,N,00015.5031,W,13.64,36.94,220410,,*18
$GPGGA,110038.087,0534.0023,N,00015.5031,W,1,09,0.8,74.3,M,20.4,M,0.0,0000*53
$GPRMC,110039.087,A,0534.0054,N,00015.5008,W,13.34,36.73,220410,,*1F
$GPGGA,110039.087,0534.0054,N,00015.5008,W,1,09,0.8,74.2,M,20.4,M,0.0,0000*59
$GPRMC,110040.087,A,0534.0085,N,00015.4986,W,13.22,35.89,220410,,*12
$GPGGA,110040.087,0534.0085,N,00015.4986,W,1,09,0.8,73.8,M,20.4,M,0.0,0000*58
$GPRMC,110041.087,A,0534.0115,N,00015.4965,W,13.11,35.35,220410,,*11
$GPGGA,110041.087,0534.0115,N,00015.4965,W,1,09,0.8,73.5,M,20.4,M,0.0,0000*51
$GPRMC,110042.087,A,0534.0145,N,00015.4944,W,12.76,34.78,220410,,*1C
$GPGGA,110042.087,0534.0145,N,00015.4944,W,1,09,0.8,73.2,M,20.4,M,0.0,0000*53
$GPRMC,110043.087,A,0534.0174,N,00015.4924,W,12.45,34.85,220410,,*1B
$GPGGA,110043.087,0534.0174,N,00015.4924,W,1,08,1.0,72.9,M,20.4,M,0.0,0000*54
$GPRMC,110044.087,A,0534.0202,N,00015.4904,W,12.18,34.25,220410,,*1E
$GPGGA,110044.087,0534.0202,N,00015.4904,W,1,08,1.0,72.6,M,20.4,M,0.0,0000*5C
$GPRMC,110045.087,A,0534.0230,N,00015.4885,W,12.07,35.44,220410,,*1E
$GPGGA,110045.087,0534.0230,N,00015.4885,W,1,08,1.0,72.6,M,20.4,M,0.0,0000*54
$GPRMC,110046.087,A,0534.0258,N,00015.4865,W,12.19,36.55,220410,,*11
$GPGGA,110046.087,0534.0258,N,00015.4865,W,1,08,1.0,72.7,M,20.4,M,0.0,0000*56
$GPRMC,110047.087,A,0534.0286,N,00015.4845,W,12.62,35.89,220410,,*1F
$GPGGA,110047.087,0534.0286,N,00015.4845,W,1,09,0.8,72.8,M,20.4,M,0.0,0000*51
$GPRMC,110048.087,A,0534.0315,N,00015.4824,W,12.84,35.67,220410,,*14
$GPGGA,110048.087,0534.0315,N,00015.4824,W,1,08,1.0,73.0,M,20.4,M,0.0,0000*53
$GPRMC,110049.087,A,0534.0344,N,00015.4803,W,12.68,36.54,220410,,*15
$GPGGA,110049.087,0534.0344,N,00015.4803,W,1,07,1.2,72.9,M,20.4,M,0.0,0000*56
$GPRMC,110050.087,A,0534.0371,N,00015.4782,W,12.45,39.84,220410,,*10
$GPGGA,110050.087,0534.0371,N,00015.4782,W,1,09,0.8,72.7,M,20.4,M,0.0,0000*55
$GPRMC,110051.087,A,0534.0396,N,00015.4758,W,12.41,42.97,220410,,*15
$GPGGA,110051.087,0534.0396,N,00015.4758,W,1,08,1.0,72.4,M,20.4,M,0.0,0000*51
$GPRMC,110052.087,A,0534.0421,N,00015.4733,W,12.56,46.90,220410,,*15
$GPGGA,110052.087,0534.0421,N,00015.4733,W,1,09,0.8,72.1,M,20.4,M,0.0,0000*59
$GPRMC,110053.087,A,0534.0444,N,00015.4706,W,13.01,50.94,220410,,*11
$GPGGA,110053.087,0534.0444,N,00015.4706,W,1,09,0.8,71.9,M,20.4,M,0.0,0000*56
$GPRMC,110054.087,A,0534.0465,N,00015.4675,W,13.53,55.10,220410,,*1E
$GPGGA,110054.087,0534.0465,N,00015.4675,W,1,09,0.8,71.6,M,20.4,M,0.0,0000*58
$GPRMC,110055.087,A,0534.0486,N,00015.4643,W,13.47,58.67,220410,,*1F
$GPGGA,110055.087,0534.0486,N,00015.4643,W,1,09,0.8,71.5,M,20.4,M,0.0,0000*52
$GPRMC,110056.087,A,0534.0503,N,00015.4610,W,12.89,62.15,220410,,*19
$GPGGA,110056.087,0534.0503,N,00015.4610,W,1,09,0.8,71.4,M,20.4,M,0.0,0000*5A
$GPRMC,110057.087,A,0534.0518,N,00015.4579,W,12.10,63.52,220410,,*1C
$GPGGA,110057.087,0534.0518,N,00015.4579,W,1,09,0.8,71.5,M,20.4,M,0.0,0000*5C
$GPRMC,110058.087,A,0534.0532,N,00015.4548,W,11.73,64.98,220410,,*1E
$GPGGA,110058.087,0534.0532,N,00015.4548,W,1,09,0.8,71.7,M,20.4,M,0.0,0000*5B
$GPRMC,110059.086,A,0534.0545,N,00015.4517,W,11.88,66.11,220410,,*13
$GPGGA,110059.086,0534.0545,N,00015.4517,W,1,09,0.8,71.9,M,20.4,M,0.0,0000*5F
$GPRMC,110100.086,A,0534.0556,N,00015.4485,W,12.11,68.72,220410,,*1E
$GPGGA,110100.086,0534.0556,N,00015.4485,W,1,08,1.0,72.0,M,20.4,M,0.0,0000*58
$GPRMC,110101.086,A,0534.0567,N,00015.4453,W,12.28,70.64,220410,,*12
$GPGGA,110101.086,0534.0567,N,00015.4453,W,1,07,1.2,72.2,M,20.4,M,0.0,0000*5F
$GPRMC,110103.086,A,0534.0586,N,00015.4386,W,12.37,74.30,220410,,*1B
$GPGGA,110103.086,0534.0586,N,00015.4386,W,1,08,1.0,72.2,M,20.4,M,0.0,0000*50
$GPRMC,110104.086,A,0534.0594,N,00015.4352,W,12.10,77.28,220410,,*19
$GPGGA,110104.086,0534.0594,N,00015.4352,W,1,08,1.0,72.2,M,20.4,M,0.0,0000*5D
$GPRMC,110105.086,A,0534.0599,N,00015.4319,W,12.11,80.32,220410,,*18
$GPGGA,110105.086,0534.0599,N,00015.4319,W,1,09,0.8,72.1,M,20.4,M,0.0,0000*55
$GPRMC,110106.086,A,0534.0603,N,00015.4284,W,12.35,82.87,220410,,*14
$GPGGA,110106.086,0534.0603,N,00015.4284,W,1,09,0.8,72.1,M,20.4,M,0.0,0000*53
$GPRMC,110107.086,A,0534.0606,N,00015.4249,W,12.51,84.53,220410,,*1C
$GPGGA,110107.086,0534.0606,N,00015.4249,W,1,09,0.8,72.0,M,20.4,M,0.0,0000*57
$GPRMC,110108.086,A,0534.0608,N,00015.4214,W,12.63,85.54,220410,,*12
$GPGGA,110108.086,0534.0608,N,00015.4214,W,1,09,0.8,71.8,M,20.4,M,0.0,0000*55
$GPRMC,110109.086,A,0534.0610,N,00015.4179,W,12.05,86.27,220410,,*15
$GPGGA,110109.086,0534.0610,N,00015.4179,W,1,09,0.8,71.5,M,20.4,M,0.0,0000*58
$GPRMC,110110.086,A,0534.0611,N,00015.4148,W,10.44,86.57,220410,,*1E
$GPGGA,110110.086,0534.0611,N,00015.4148,W,1,08,1.0,71.3,M,20.4,M,0.0,0000*5D
$GPRMC,110111.086,A,0534.0612,N,00015.4122,W,8.08,88.74,220410,,*2E
$GPGGA,110111.086,0534.0612,N,00015.4122,W,1,08,1.0,71.1,M,20.4,M,0.0,0000*51
$GPRMC,110112.086,A,0534.0612,N,00015.4105,W,4.21,91.35,220410,,*22
$GPGGA,110112.086,0534.0612,N,00015.4105,W,1,09,0.8,71.0,M,20.4,M,0.0,0000*5E
$GPRMC,110113.086,A,0534.0611,N,00015.4097,W,2.47,93.20,220410,,*2A
$GPGGA,110113.086,0534.0611,N,00015.4097,W,1,08,1.0,70.9,M,20.4,M,0.0,0000*56
$GPRMC,110114.086,A,0534.0610,N,00015.4089,W,3.62,92.29,220410,,*2D
$GPGGA,110114.086,0534.0610,N,00015.4089,W,1,08,1.0,70.8,M,20.4,M,0.0,0000*5E
$GPRMC,110115.086,A,0534.0609,N,00015.4076,W,6.37,89.87,220410,,*2F
$GPGGA,110115.086,0534.0609,N,00015.4076,W,1,09,0.8,70.6,M,20.4,M,0.0,0000*51
$GPRMC,110116.086,A,0534.0610,N,00015.4056,W,8.50,83.90,220410,,*25
$GPGGA,110116.086,0534.0610,N,00015.4056,W,1,09,0.8,70.4,M,20.4,M,0.0,0000*5A
$GPRMC,110117.086,A,0534.0615,N,00015.4032,W,9.61,73.73,220410,,*22
$GPGGA,110117.086,0534.0615,N,00015.4032,W,1,09,0.8,70.0,M,20.4,M,0.0,0000*58
$GPRMC,110118.086,A,0534.0627,N,00015.4007,W,10.22,58.03,220410,,*1B
$GPGGA,110118.086,0534.0627,N,00015.4007,W,1,09,0.8,69.6,M,20.4,M,0.0,0000*5E
$GPRMC,110119.086,A,0534.0647,N,00015.3987,W,10.14,37.26,220410,,*11
$GPGGA,110119.086,0534.0647,N,00015.3987,W,1,09,0.8,69.3,M,20.4,M,0.0,0000*5A
$GPRMC,110120.086,A,0534.0673,N,00015.3975,W,10.09,18.31,220410,,*16
$GPGGA,110120.086,0534.0673,N,00015.3975,W,1,09,0.8,69.1,M,20.4,M,0.0,0000*58
$GPRMC,110121.086,A,0534.0703,N,00015.3968,W,10.52,12.54,220410,,*1A
$GPGGA,110121.086,0534.0703,N,00015.3968,W,1,09,0.8,68.9,M,20.4,M,0.0,0000*5A
$GPRMC,110122.086,A,0534.0734,N,00015.3962,W,11.56,13.86,220410,,*1C
$GPGGA,110122.086,0534.0734,N,00015.3962,W,1,09,0.8,68.8,M,20.4,M,0.0,0000*56
$GPRMC,110123.086,A,0534.0769,N,00015.3955,W,12.57,15.27,220410,,*1E
$GPGGA,110123.086,0534.0769,N,00015.3955,W,1,09,0.8,68.7,M,20.4,M,0.0,0000*54
$GPRMC,110124.085,A,0534.0804,N,00015.3946,W,12.50,17.25,220410,,*1B
$GPGGA,110124.085,0534.0804,N,00015.3946,W,1,09,0.8,68.6,M,20.4,M,0.0,0000*57
$GPRMC,110125.085,A,0534.0839,N,00015.3936,W,12.16,18.60,220410,,*1F
$GPGGA,110125.085,0534.0839,N,00015.3936,W,1,09,0.8,68.6,M,20.4,M,0.0,0000*5F
$GPRMC,110126.085,A,0534.0872,N,00015.3926,W,11.88,18.22,220410,,*10
$GPGGA,110126.085,0534.0872,N,00015.3926,W,1,09,0.8,68.5,M,20.4,M,0.0,0000*51
$GPRMC,110127.085,A,0534.0906,N,00015.3917,W,12.14,16.75,220410,,*1B
$GPGGA,110127.085,0534.0906,N,00015.3917,W,1,09,0.8,68.5,M,20.4,M,0.0,0000*50
$GPRMC,110128.085,A,0534.0940,N,00015.3909,W,12.34,15.48,220410,,*16
$GPGGA,110128.085,0534.0940,N,00015.3909,W,1,09,0.8,68.6,M,20.4,M,0.0,0000*51
$GPRMC,110129.085,A,0534.0974,N,00015.3901,W,12.43,15.28,220410,,*1E
$GPGGA,110129.085,0534.0974,N,00015.3901,W,1,09,0.8,68.6,M,20.4,M,0.0,0000*5F
$GPRMC,110130.085,A,0534.1008,N,00015.3892,W,12.16,16.01,220410,,*16
$GPGGA,110130.085,0534.1008,N,00015.3892,W,1,09,0.8,68.6,M,20.4,M,0.0,0000*5F
$GPRMC,110131.085,A,0534.1041,N,00015.3883,W,11.54,17.25,220410,,*18
$GPGGA,110131.085,0534.1041,N,00015.3883,W,1,09,0.8,68.7,M,20.4,M,0.0,0000*52
$GPRMC,110132.085,A,0534.1070,N,00015.3874,W,10.47,16.28,220410,,*1E
$GPGGA,110132.085,0534.1070,N,00015.3874,W,1,09,0.8,68.7,M,20.4,M,0.0,0000*5B
$GPRMC,110133.085,A,0534.1098,N,00015.3866,W,9.97,16.10,220410,,*24
$GPGGA,110133.085,0534.1098,N,00015.3866,W,1,09,0.8,68.9,M,20.4,M,0.0,0000*51
$GPRMC,110134.085,A,0534.1125,N,00015.3858,W,10.50,18.53,220410,,*13
$GPGGA,110134.085,0534.1125,N,00015.3858,W,1,09,0.8,68.9,M,20.4,M,0.0,0000*5C
$GPRMC,110135.085,A,0534.1153,N,00015.3847,W,11.48,22.24,220410,,*1C
$GPGGA,110135.085,0534.1153,N,00015.3847,W,1,09,0.8,69.1,M,20.4,M,0.0,0000*5B
$GPRMC,110136.085,A,0534.1184,N,00015.3834,W,12.61,25.40,220410,,*1C
$GPGGA,110136.085,0534.1184,N,00015.3834,W,1,09,0.8,69.1,M,20.4,M,0.0,0000*56
$GPRMC,110137.085,A,0534.1216,N,00015.3818,W,13.60,26.99,220410,,*1C
$GPGGA,110137.085,0534.1216,N,00015.3818,W,1,09,0.8,69.0,M,20.4,M,0.0,0000*50
$GPRMC,110138.085,A,0534.1251,N,00015.3800,W,14.33,26.86,220410,,*16
$GPGGA,110138.085,0534.1251,N,00015.3800,W,1,09,0.8,69.0,M,20.4,M,0.0,0000*55
$GPRMC,110139.085,A,0534.1288,N,00015.3782,W,15.01,26.55,220410,,*18
$GPGGA,110139.085,0534.1288,N,00015.3782,W,1,09,0.8,69.1,M,20.4,M,0.0,0000*54
$GPRMC,110140.085,A,0534.1326,N,00015.3763,W,15.32,26.94,220410,,*11
$GPGGA,110140.085,0534.1326,N,00015.3763,W,1,09,0.8,69.1,M,20.4,M,0.0,0000*50
$GPRMC,110141.085,A,0534.1364,N,00015.3743,W,15.72,27.29,220410,,*17
$GPGGA,110141.085,0534.1364,N,00015.3743,W,1,09,0.8,69.2,M,20.4,M,0.0,0000*56
$GPRMC,110142.085,A,0534.1404,N,00015.3723,W,16.23,27.98,220410,,*1E
$GPGGA,110142.085,0534.1404,N,00015.3723,W,1,09,0.8,69.2,M,20.4,M,0.0,0000*52
$GPRMC,110143.085,A,0534.1445,N,00015.3700,W,16.91,29.62,220410,,*19
$GPGGA,110143.085,0534.1445,N,00015.3700,W,1,09,0.8,69.2,M,20.4,M,0.0,0000*57
$GPRMC,110144.085,A,0534.1487,N,00015.3676,W,17.40,30.98,220410,,*10
$GPGGA,110144.085,0534.1487,N,00015.3676,W,1,09,0.8,69.2,M,20.4,M,0.0,0000*5E
$GPRMC,110145.085,A,0534.1529,N,00015.3651,W,17.50,32.03,220410,,*10
$GPGGA,110145.085,0534.1529,N,00015.3651,W,1,09,0.8,69.2,M,20.4,M,0.0,0000*5F
$GPRMC,110146.085,A,0534.1570,N,00015.3624,W,17.58,32.54,220410,,*17
$GPGGA,110146.085,0534.1570,N,00015.3624,W,1,09,0.8,69.2,M,20.4,M,0.0,0000*52
$GPRMC,110147.085,A,0534.1612,N,00015.3598,W,17.79,32.99,220410,,*17
$GPGGA,110147.085,0534.1612,N,00015.3598,W,1,09,0.8,69.3,M,20.4,M,0.0,0000*51
$GPRMC,110148.085,A,0534.1654,N,00015.3571,W,18.03,33.01,220410,,*1F
$GPGGA,110148.085,0534.1654,N,00015.3571,W,1,08,1.0,69.4,M,20.4,M,0.0,0000*54
$GPRMC,110149.085,A,0534.1696,N,00015.3543,W,18.16,33.37,220410,,*10
$GPGGA,110149.085,0534.1696,N,00015.3543,W,1,08,1.0,69.5,M,20.4,M,0.0,0000*5B
$GPRMC,110150.084,A,0534.1738,N,00015.3515,W,18.15,32.88,220410,,*19
$GPGGA,110150.084,0534.1738,N,00015.3515,W,1,09,0.8,69.4,M,20.4,M,0.0,0000*5D
$GPRMC,110151.084,A,0534.1781,N,00015.3488,W,17.95,32.24,220410,,*1E
$GPGGA,110151.084,0534.1781,N,00015.3488,W,1,09,0.8,69.5,M,20.4,M,0.0,0000*5A
$GPRMC,110152.084,A,0534.1823,N,00015.3462,W,17.54,32.57,220410,,*17
$GPGGA,110152.084,0534.1823,N,00015.3462,W,1,08,1.0,69.5,M,20.4,M,0.0,0000*52
$GPRMC,110153.084,A,0534.1863,N,00015.3436,W,16.98,32.83,220410,,*1B
$GPGGA,110153.084,0534.1863,N,00015.3436,W,1,09,0.8,69.4,M,20.4,M,0.0,0000*5F
$GPRMC,110154.084,A,0534.1902,N,00015.3410,W,16.37,33.12,220410,,*12
$GPGGA,110154.084,0534.1902,N,00015.3410,W,1,09,0.8,69.3,M,20.4,M,0.0,0000*5D
$GPRMC,110155.084,A,0534.1940,N,00015.3386,W,15.64,32.93,220410,,*10
$GPGGA,110155.084,0534.1940,N,00015.3386,W,1,08,1.0,69.3,M,20.4,M,0.0,0000*5A
$GPRMC,110156.084,A,0534.1976,N,00015.3362,W,15.08,32.99,220410,,*1C
$GPGGA,110156.084,0534.1976,N,00015.3362,W,1,08,1.0,69.4,M,20.4,M,0.0,0000*51
$GPRMC,110157.084,A,0534.2011,N,00015.3339,W,14.96,33.69,220410,,*10
$GPGGA,110157.084,0534.2011,N,00015.3339,W,1,08,1.0,69.6,M,20.4,M,0.0,0000*57
$GPRMC,110158.084,A,0534.2045,N,00015.3316,W,14.54,34.11,220410,,*15
$GPGGA,110158.084,0534.2045,N,00015.3316,W,1,07,1.2,70.0,M,20.4,M,0.0,0000*57
$GPRMC,110159.084,A,0534.2077,N,00015.3293,W,14.19,34.70,220410,,*17
$GPGGA,110159.084,0534.2077,N,00015.3293,W,1,07,1.2,70.3,M,20.4,M,0.0,0000*58
$GPRMC,110200.084,A,0534.2109,N,00015.3271,W,13.63,34.14,220410,,*14
$GPGGA,110200.084,0534.2109,N,00015.3271,W,1,07,1.2,70.7,M,20.4,M,0.0,0000*57
$GPRMC,110201.084,A,0534.2139,N,00015.3250,W,13.08,33.79,220410,,*14
$GPGGA,110201.084,0534.2139,N,00015.3250,W,1,07,1.2,71.0,M,20.4,M,0.0,0000*50
$GPRMC,110202.084,A,0534.2169,N,00015.3231,W,12.53,32.89,220410,,*14
$GPGGA,110202.084,0534.2169,N,00015.3231,W,1,08,1.0,71.4,M,20.4,M,0.0,0000*58
$GPRMC,110203.084,A,0534.2199,N,00015.3212,W,13.05,32.23,220410,,*19
$GPGGA,110203.084,0534.2199,N,00015.3212,W,1,07,1.2,71.6,M,20.4,M,0.0,0000*58
$GPRMC,110204.084,A,0534.2231,N,00015.3191,W,14.02,33.27,220410,,*12
$GPGGA,110204.084,0534.2231,N,00015.3191,W,1,07,1.2,71.9,M,20.4,M,0.0,0000*59
$GPRMC,110205.084,A,0534.2264,N,00015.3169,W,14.61,34.15,220410,,*17
$GPGGA,110205.084,0534.2264,N,00015.3169,W,1,07,1.2,72.1,M,20.4,M,0.0,0000*54
$GPRMC,110206.084,A,0534.2297,N,00015.3146,W,14.72,35.26,220410,,*16
$GPGGA,110206.084,0534.2297,N,00015.3146,W,1,07,1.2,72.3,M,20.4,M,0.0,0000*54
$GPRMC,110207.084,A,0534.2330,N,00015.3123,W,14.13,34.76,220410,,*1B
$GPGGA,110207.084,0534.2330,N,00015.3123,W,1,07,1.2,72.4,M,20.4,M,0.0,0000*5D
$GPRMC,110208.084,A,0534.2361,N,00015.3102,W,12.76,34.13,220410,,*15
$GPGGA,110208.084,0534.2361,N,00015.3102,W,1,08,1.0,72.4,M,20.4,M,0.0,0000*58
$GPRMC,110209.084,A,0534.2389,N,00015.3084,W,11.14,33.54,220410,,*1E
$GPGGA,110209.084,0534.2389,N,00015.3084,W,1,08,1.0,72.4,M,20.4,M,0.0,0000*50
$GPRMC,110210.084,A,0534.2413,N,00015.3067,W,10.20,33.70,220410,,*1F
$GPGGA,110210.084,0534.2413,N,00015.3067,W,1,08,1.0,72.3,M,20.4,M,0.0,0000*56
$GPRMC,110211.084,A,0534.2436,N,00015.3052,W,9.45,35.65,220410,,*26
$GPGGA,110211.084,0534.2436,N,00015.3052,W,1,08,1.0,72.3,M,20.4,M,0.0,0000*56
$GPRMC,110212.084,A,0534.2455,N,00015.3037,W,8.52,40.29,220410,,*2E
$GPGGA,110212.084,0534.2455,N,00015.3037,W,1,08,1.0,72.1,M,20.4,M,0.0,0000*51
$GPRMC,110213.084,A,0534.2469,N,00015.3023,W,6.71,49.57,220410,,*2A
$GPGGA,110213.084,0534.2469,N,00015.3023,W,1,08,1.0,71.9,M,20.4,M,0.0,0000*51
$GPRMC,110214.084,A,0534.2478,N,00015.3009,W,6.07,63.15,220410,,*2A
$GPGGA,110214.084,0534.2478,N,00015.3009,W,1,08,1.0,71.7,M,20.4,M,0.0,0000*50
$GPRMC,110215.084,A,0534.2482,N,00015.2992,W,6.87,76.15,220410,,*28
$GPGGA,110215.084,0534.2482,N,00015.2992,W,1,09,0.8,71.3,M,20.4,M,0.0,0000*52
$GPRMC,110216.083,A,0534.2482,N,00015.2972,W,8.25,93.65,220410,,*28
$GPGGA,110216.083,0534.2482,N,00015.2972,W,1,09,0.8,71.0,M,20.4,M,0.0,0000*5B
$GPRMC,110217.083,A,0534.2475,N,00015.2947,W,9.83,109.70,220410,,*1C
$GPGGA,110217.083,0534.2475,N,00015.2947,W,1,09,0.8,70.7,M,20.4,M,0.0,0000*52
$GPRMC,110218.083,A,0534.2460,N,00015.2920,W,11.62,119.56,220410,,*25
$GPGGA,110218.083,0534.2460,N,00015.2920,W,1,09,0.8,70.5,M,20.4,M,0.0,0000*5A
$GPRMC,110219.083,A,0534.2440,N,00015.2890,W,12.89,121.96,220410,,*2D
$GPGGA,110219.083,0534.2440,N,00015.2890,W,1,09,0.8,70.4,M,20.4,M,0.0,0000*52
$GPRMC,110220.083,A,0534.2418,N,00015.2859,W,13.32,123.05,220410,,*26
$GPGGA,110220.083,0534.2418,N,00015.2859,W,1,09,0.8,70.3,M,20.4,M,0.0,0000*57
$GPRMC,110221.083,A,0534.2395,N,00015.2826,W,13.54,123.44,220410,,*28
$GPGGA,110221.083,0534.2395,N,00015.2826,W,1,09,0.8,70.1,M,20.4,M,0.0,0000*5E
$GPRMC,110222.083,A,0534.2372,N,00015.2794,W,13.59,123.27,220410,,*2C
$GPGGA,110222.083,0534.2372,N,00015.2794,W,1,09,0.8,69.9,M,20.4,M,0.0,0000*52
$GPRMC,110223.083,A,0534.2349,N,00015.2762,W,13.62,123.68,220410,,*2F
$GPGGA,110223.083,0534.2349,N,00015.2762,W,1,09,0.8,69.7,M,20.4,M,0.0,0000*5C
$GPRMC,110224.083,A,0534.2327,N,00015.2730,W,13.85,124.63,220410,,*22
$GPGGA,110224.083,0534.2327,N,00015.2730,W,1,08,1.0,69.6,M,20.4,M,0.0,0000*5D
$GPRMC,110225.083,A,0534.2302,N,00015.2697,W,14.70,125.10,220410,,*20
$GPGGA,110225.083,0534.2302,N,00015.2697,W,1,08,1.0,69.5,M,20.4,M,0.0,0000*54
$GPRMC,110226.083,A,0534.2278,N,00015.2663,W,14.72,125.04,220410,,*23
$GPGGA,110226.083,0534.2278,N,00015.2663,W,1,09,0.8,69.5,M,20.4,M,0.0,0000*58
$GPRMC,110227.083,A,0534.2254,N,00015.2629,W,14.09,124.32,220410,,*2A
$GPGGA,110227.083,0534.2254,N,00015.2629,W,1,09,0.8,69.6,M,20.4,M,0.0,0000*5A
$GPRMC,110228.083,A,0534.2231,N,00015.2596,W,14.41,123.92,220410,,*20
$GPGGA,110228.083,0534.2231,N,00015.2596,W,1,09,0.8,69.7,M,20.4,M,0.0,0000*50
$GPRMC,110229.083,A,0534.2207,N,00015.2561,W,15.63,123.09,220410,,*2F
$GPGGA,110229.083,0534.2207,N,00015.2561,W,1,09,0.8,69.8,M,20.4,M,0.0,0000*53
$GPRMC,110230.083,A,0534.2182,N,00015.2522,W,16.54,122.02,220410,,*23
$GPGGA,110230.083,0534.2182,N,00015.2522,W,1,09,0.8,69.8,M,20.4,M,0.0,0000*52
$GPRMC,110231.083,A,0534.2156,N,00015.2483,W,16.70,121.93,220410,,*2C
$GPGGA,110231.083,0534.2156,N,00015.2483,W,1,09,0.8,69.7,M,20.4,M,0.0,0000*5F
$GPRMC,110232.083,A,0534.2131,N,00015.2444,W,15.81,122.51,220410,,*25
$GPGGA,110232.083,0534.2131,N,00015.2444,W,1,09,1.0,69.7,M,20.4,M,0.0,0000*5F
$GPRMC,110233.083,A,0534.2109,N,00015.2409,W,13.76,123.64,220410,,*2F
$GPGGA,110233.083,0534.2109,N,00015.2409,W,1,09,1.0,69.6,M,20.4,M,0.0,0000*5D
$GPRMC,110234.083,A,0534.2090,N,00015.2382,W,10.04,125.60,220410,,*29
$GPGGA,110234.083,0534.2090,N,00015.2382,W,1,09,1.0,69.5,M,20.4,M,0.0,0000*5C
$GPRMC,110235.083,A,0534.2076,N,00015.2365,W,5.85,135.28,220410,,*19
$GPGGA,110235.083,0534.2076,N,00015.2365,W,1,09,1.0,69.5,M,20.4,M,0.0,0000*5C
$GPRMC,110236.083,A,0534.2067,N,00015.2357,W,3.78,149.44,220410,,*1E
$GPGGA,110236.083,0534.2067,N,00015.2357,W,1,09,1.0,69.4,M,20.4,M,0.0,0000*5F
$GPRMC,110237.083,A,0534.2059,N,00015.2354,W,2.88,157.73,220410,,*14
$GPGGA,110237.083,0534.2059,N,00015.2354,W,1,09,1.0,69.4,M,20.4,M,0.0,0000*50
$GPRMC,110238.083,A,0534.2052,N,00015.2353,W,3.00,170.87,220410,,*18
$GPGGA,110238.083,0534.2052,N,00015.2353,W,1,09,1.0,69.5,M,20.4,M,0.0,0000*52
$GPRMC,110239.083,A,0534.2044,N,00015.2354,W,3.26,185.11,220410,,*18
$GPGGA,110239.083,0534.2044,N,00015.2354,W,1,09,1.0,69.7,M,20.4,M,0.0,0000*51
$GPRMC,110240.083,A,0534.2036,N,00015.2358,W,3.71,197.90,220410,,*17
$GPGGA,110240.083,0534.2036,N,00015.2358,W,1,08,1.0,69.7,M,20.4,M,0.0,0000*57
$GPRMC,110241.082,A,0534.2027,N,00015.2364,W,3.90,214.12,220410,,*15
$GPGGA,110241.082,0534.2027,N,00015.2364,W,1,08,1.0,69.8,M,20.4,M,0.0,0000*57
$GPRMC,110242.082,A,0534.2019,N,00015.2372,W,4.11,223.89,220410,,*14
$GPGGA,110242.082,0534.2019,N,00015.2372,W,1,07,1.2,69.7,M,20.4,M,0.0,0000*5C
$GPRMC,110243.082,A,0534.2012,N,00015.2382,W,4.02,227.82,220410,,*1C
$GPGGA,110243.082,0534.2012,N,00015.2382,W,1,09,1.0,69.8,M,20.4,M,0.0,0000*5A
$GPRMC,110244.082,A,0534.2004,N,00015.2391,W,4.15,223.67,220410,,*17
$GPGGA,110244.082,0534.2004,N,00015.2391,W,1,09,1.0,69.8,M,20.4,M,0.0,0000*58
$GPRMC,110245.082,A,0534.1996,N,00015.2400,W,4.26,219.64,220410,,*12
$GPGGA,110245.082,0534.1996,N,00015.2400,W,1,09,1.0,69.6,M,20.4,M,0.0,0000*59
$GPRMC,110246.082,A,0534.1987,N,00015.2409,W,4.43,214.26,220410,,*10
$GPGGA,110246.082,0534.1987,N,00015.2409,W,1,09,1.0,69.4,M,20.4,M,0.0,0000*51
$GPRMC,110247.082,A,0534.1977,N,00015.2416,W,4.33,213.56,220410,,*17
$GPGGA,110247.082,0534.1977,N,00015.2416,W,1,09,1.0,69.0,M,20.4,M,0.0,0000*55
$GPRMC,110248.082,A,0534.1967,N,00015.2424,W,4.39,210.20,220410,,*10
$GPGGA,110248.082,0534.1967,N,00015.2424,W,1,09,1.0,68.7,M,20.4,M,0.0,0000*5C
$GPRMC,110249.082,A,0534.1957,N,00015.2431,W,4.33,212.51,220410,,*18
$GPGGA,110249.082,0534.1957,N,00015.2431,W,1,09,1.0,68.6,M,20.4,M,0.0,0000*5B
$GPRMC,110250.082,A,0534.1946,N,00015.2439,W,4.75,210.22,220410,,*1C
$GPGGA,110250.082,0534.1946,N,00015.2439,W,1,09,1.0,68.7,M,20.4,M,0.0,0000*5A
$GPRMC,110251.082,A,0534.1934,N,00015.2447,W,4.95,210.14,220410,,*1A
$GPGGA,110251.082,0534.1934,N,00015.2447,W,1,09,1.0,68.8,M,20.4,M,0.0,0000*58
$GPRMC,110252.082,A,0534.1922,N,00015.2455,W,5.17,205.56,220410,,*14
$GPGGA,110252.082,0534.1922,N,00015.2455,W,1,09,1.0,68.9,M,20.4,M,0.0,0000*5E
$GPRMC,110253.082,A,0534.1909,N,00015.2461,W,4.97,202.52,220410,,*11
$GPGGA,110253.082,0534.1909,N,00015.2461,W,1,09,1.0,68.9,M,20.4,M,0.0,0000*51
$GPRMC,110254.082,A,0534.1895,N,00015.2467,W,5.23,201.35,220410,,*18
$GPGGA,110254.082,0534.1895,N,00015.2467,W,1,09,1.0,68.9,M,20.4,M,0.0,0000*54
$GPRMC,110255.082,A,0534.1881,N,00015.2473,W,5.43,202.36,220410,,*1F
$GPGGA,110255.082,0534.1881,N,00015.2473,W,1,09,1.0,68.8,M,20.4,M,0.0,0000*54
$GPRMC,110256.082,A,0534.1867,N,00015.2480,W,5.62,205.27,220410,,*1C
$GPGGA,110256.082,0534.1867,N,00015.2480,W,1,09,1.0,68.7,M,20.4,M,0.0,0000*5C
$GPRMC,110257.082,A,0534.1853,N,00015.2487,W,5.78,205.44,220410,,*13
$GPGGA,110257.082,0534.1853,N,00015.2487,W,1,09,1.0,68.7,M,20.4,M,0.0,0000*5D
$GPRMC,110258.082,A,0534.1838,N,00015.2494,W,5.80,208.58,220410,,*14
$GPGGA,110258.082,0534.1838,N,00015.2494,W,1,09,1.0,68.7,M,20.4,M,0.0,0000*5D
$GPRMC,110259.082,A,0534.1824,N,00015.2502,W,5.60,210.59,220410,,*10
$GPGGA,110259.082,0534.1824,N,00015.2502,W,1,09,1.0,68.8,M,20.4,M,0.0,0000*50
$GPRMC,110300.082,A,0534.1810,N,00015.2510,W,5.41,212.90,220410,,*1D
$GPGGA,110300.082,0534.1810,N,00015.2510,W,1,09,1.0,68.8,M,20.4,M,0.0,0000*59
$GPRMC,110301.082,A,0534.1798,N,00015.2519,W,5.38,218.51,220410,,*13
$GPGGA,110301.082,0534.1798,N,00015.2519,W,1,09,1.0,68.6,M,20.4,M,0.0,0000*50
$GPRMC,110302.082,A,0534.1786,N,00015.2529,W,5.57,217.92,220410,,*15
$GPGGA,110302.082,0534.1786,N,00015.2529,W,1,09,1.0,68.3,M,20.4,M,0.0,0000*5A
$GPRMC,110303.082,A,0534.1774,N,00015.2538,W,5.57,213.68,220410,,*18
$GPGGA,110303.082,0534.1774,N,00015.2538,W,1,09,1.0,67.9,M,20.4,M,0.0,0000*53
$GPRMC,110304.082,A,0534.1761,N,00015.2546,W,5.43,209.46,220410,,*10
$GPGGA,110304.082,0534.1761,N,00015.2546,W,1,09,1.0,67.6,M,20.4,M,0.0,0000*56
$GPRMC,110305.082,A,0534.1749,N,00015.2553,W,4.88,207.81,220410,,*1C
$GPGGA,110305.082,0534.1749,N,00015.2553,W,1,09,1.0,67.4,M,20.4,M,0.0,0000*5B
$GPRMC,110306.082,A,0534.1738,N,00015.2559,W,4.07,206.54,220410,,*1D
$GPGGA,110306.082,0534.1738,N,00015.2559,W,1,09,1.0,67.2,M,20.4,M,0.0,0000*52
$GPRMC,110307.081,A,0534.1729,N,00015.2564,W,3.23,203.97,220410,,*1A
$GPGGA,110307.081,0534.1729,N,00015.2564,W,1,09,1.0,67.0,M,20.4,M,0.0,0000*5C
$GPRMC,110308.081,A,0534.1721,N,00015.2568,W,3.19,203.47,220410,,*15
$GPGGA,110308.081,0534.1721,N,00015.2568,W,1,09,1.0,66.9,M,20.4,M,0.0,0000*5F
$GPRMC,110309.081,A,0534.1712,N,00015.2572,W,3.55,205.68,220410,,*1C
$GPGGA,110309.081,0534.1712,N,00015.2572,W,1,09,1.0,67.0,M,20.4,M,0.0,0000*5D
$GPRMC,110310.081,A,0534.1702,N,00015.2578,W,4.43,207.37,220410,,*17
$GPGGA,110310.081,0534.1702,N,00015.2578,W,1,09,1.0,67.1,M,20.4,M,0.0,0000*5F
$GPRMC,110311.081,A,0534.1691,N,00015.2584,W,4.66,209.11,220410,,*13
$GPGGA,110311.081,0534.1691,N,00015.2584,W,1,09,1.0,67.3,M,20.4,M,0.0,0000*54
$GPRMC,110312.081,A,0534.1679,N,00015.2592,W,5.15,214.72,220410,,*1D
$GPGGA,110312.081,0534.1679,N,00015.2592,W,1,09,1.0,67.4,M,20.4,M,0.0,0000*51
$GPRMC,110313.081,A,0534.1667,N,00015.2601,W,5.64,215.98,220410,,*19
$GPGGA,110313.081,0534.1667,N,00015.2601,W,1,09,1.0,67.5,M,20.4,M,0.0,0000*57
$GPRMC,110314.081,A,0534.1655,N,00015.2610,W,5.44,216.95,220410,,*13
$GPGGA,110314.081,0534.1655,N,00015.2610,W,1,09,1.0,67.5,M,20.4,M,0.0,0000*51
$GPRMC,110315.081,A,0534.1644,N,00015.2619,W,4.77,217.13,220410,,*15
$GPGGA,110315.081,0534.1644,N,00015.2619,W,1,09,1.0,67.5,M,20.4,M,0.0,0000*59
$GPRMC,110316.081,A,0534.1634,N,00015.2626,W,4.09,214.57,220410,,*17
$GPGGA,110316.081,0534.1634,N,00015.2626,W,1,09,1.0,67.5,M,20.4,M,0.0,0000*51
$GPRMC,110317.081,A,0534.1625,N,00015.2632,W,3.43,212.36,220410,,*1B
$GPGGA,110317.081,0534.1625,N,00015.2632,W,1,09,1.0,67.4,M,20.4,M,0.0,0000*54
$GPRMC,110318.081,A,0534.1617,N,00015.2637,W,3.77,212.89,220410,,*13
$GPGGA,110318.081,0534.1617,N,00015.2637,W,1,09,1.0,67.3,M,20.4,M,0.0,0000*58
$GPRMC,110319.081,A,0534.1608,N,00015.2643,W,3.87,210.96,220410,,*1C
$GPGGA,110319.081,0534.1608,N,00015.2643,W,1,09,1.0,67.2,M,20.4,M,0.0,0000*55
$GPRMC,110320.081,A,0534.1597,N,00015.2650,W,5.19,211.09,220410,,*17
$GPGGA,110320.081,0534.1597,N,00015.2650,W,1,09,1.0,66.9,M,20.4,M,0.0,0000*52
$GPRMC,110321.081,A,0534.1584,N,00015.2658,W,5.68,213.74,220410,,*12
$GPGGA,110321.081,0534.1584,N,00015.2658,W,1,09,1.0,66.7,M,20.4,M,0.0,0000*57
$GPRMC,110322.081,A,0534.1569,N,00015.2668,W,6.33,214.63,220410,,*1D
$GPGGA,110322.081,0534.1569,N,00015.2668,W,1,09,1.0,66.3,M,20.4,M,0.0,0000*50
$GPRMC,110323.081,A,0534.1554,N,00015.2679,W,6.82,214.15,220410,,*19
$GPGGA,110323.081,0534.1554,N,00015.2679,W,1,09,1.0,66.1,M,20.4,M,0.0,0000*5D
$GPRMC,110324.081,A,0534.1537,N,00015.2690,W,7.11,215.31,220410,,*10
$GPGGA,110324.081,0534.1537,N,00015.2690,W,1,09,1.0,65.9,M,20.4,M,0.0,0000*53
$GPRMC,110325.081,A,0534.1521,N,00015.2702,W,6.72,213.58,220410,,*11
$GPGGA,110325.081,0534.1521,N,00015.2702,W,1,09,1.0,65.8,M,20.4,M,0.0,0000*5E
$GPRMC,110326.081,A,0534.1506,N,00015.2712,W,5.82,212.03,220410,,*15
$GPGGA,110326.081,0534.1506,N,00015.2712,W,1,09,1.0,65.7,M,20.4,M,0.0,0000*56
$GPRMC,110327.081,A,0534.1493,N,00015.2720,W,4.75,213.48,220410,,*1F
$GPGGA,110327.081,0534.1493,N,00015.2720,W,1,09,1.0,65.6,M,20.4,M,0.0,0000*5A
$GPRMC,110328.081,A,0534.1484,N,00015.2727,W,3.66,210.68,220410,,*15
$GPGGA,110328.081,0534.1484,N,00015.2727,W,1,09,1.0,65.4,M,20.4,M,0.0,0000*56
$GPRMC,110329.081,A,0534.1475,N,00015.2732,W,3.93,213.23,220410,,*18
$GPGGA,110329.081,0534.1475,N,00015.2732,W,1,09,1.0,65.3,M,20.4,M,0.0,0000*5A
$GPRMC,110330.081,A,0534.1467,N,00015.2738,W,4.00,213.11,220410,,*15
$GPGGA,110330.081,0534.1467,N,00015.2738,W,1,09,1.0,65.3,M,20.4,M,0.0,0000*5B
$GPRMC,110331.081,A,0534.1460,N,00015.2743,W,2.69,215.52,220410,,*17
$GPGGA,110331.081,0534.1460,N,00015.2743,W,1,09,1.0,65.4,M,20.4,M,0.0,0000*56
$GPRMC,110332.081,A,0534.1455,N,00015.2746,W,1.87,224.98,220410,,*10
$GPGGA,110332.081,0534.1455,N,00015.2746,W,1,09,1.0,65.5,M,20.4,M,0.0,0000*57
$GPRMC,110333.080,A,0534.1452,N,00015.2749,W,2.04,224.46,220410,,*13
$GPGGA,110333.080,0534.1452,N,00015.2749,W,1,09,1.0,65.6,M,20.4,M,0.0,0000*5C
$GPRMC,110334.080,A,0534.1449,N,00015.2752,W,0.89,227.86,220410,,*1C
$GPGGA,110334.080,0534.1449,N,00015.2752,W,1,09,1.0,65.5,M,20.4,M,0.0,0000*58
$GPRMC,110335.080,A,0534.1448,N,00015.2752,W,0.48,222.90,220410,,*13
$GPGGA,110335.080,0534.1448,N,00015.2752,W,1,09,1.0,65.4,M,20.4,M,0.0,0000*59
$GPRMC,110336.080,A,0534.1445,N,00015.2752,W,1.09,202.94,220410,,*1F
$GPGGA,110336.080,0534.1445,N,00015.2752,W,1,09,1.0,65.3,M,20.4,M,0.0,0000*50
$GPRMC,110337.080,A,0534.1441,N,00015.2753,W,1.93,198.11,220410,,*15
$GPGGA,110337.080,0534.1441,N,00015.2753,W,1,09,1.0,65.3,M,20.4,M,0.0,0000*54
$GPRMC,110338.080,A,0534.1435,N,00015.2754,W,2.38,186.44,220410,,*13
$GPGGA,110338.080,0534.1435,N,00015.2754,W,1,09,1.0,65.3,M,20.4,M,0.0,0000*5F
$GPRMC,110339.080,A,0534.1428,N,00015.2755,W,2.51,176.75,220410,,*1D
$GPGGA,110339.080,0534.1428,N,00015.2755,W,1,09,1.0,65.2,M,20.4,M,0.0,0000*52
$GPRMC,110340.080,A,0534.1421,N,00015.2753,W,3.11,152.92,220410,,*16
$GPGGA,110340.080,0534.1421,N,00015.2753,W,1,09,1.0,65.0,M,20.4,M,0.0,0000*51
$GPRMC,110341.080,A,0534.1412,N,00015.2747,W,3.92,140.66,220410,,*11
$GPGGA,110341.080,0534.1412,N,00015.2747,W,1,09,1.0,64.7,M,20.4,M,0.0,0000*53
$GPRMC,110342.080,A,0534.1404,N,00015.2739,W,4.43,133.27,220410,,*16
$GPGGA,110342.080,0534.1404,N,00015.2739,W,1,09,1.0,64.4,M,20.4,M,0.0,0000*5D
$GPRMC,110343.080,A,0534.1395,N,00015.2729,W,5.08,130.56,220410,,*12
$GPGGA,110343.080,0534.1395,N,00015.2729,W,1,09,1.0,64.4,M,20.4,M,0.0,0000*52
$GPRMC,110344.080,A,0534.1386,N,00015.2717,W,5.49,126.85,220410,,*16
$GPGGA,110344.080,0534.1386,N,00015.2717,W,1,09,1.0,64.4,M,20.4,M,0.0,0000*5A
$GPRMC,110345.080,A,0534.1376,N,00015.2704,W,5.20,129.39,220410,,*1D
$GPGGA,110345.080,0534.1376,N,00015.2704,W,1,09,1.0,64.2,M,20.4,M,0.0,0000*50
$GPRMC,110346.080,A,0534.1367,N,00015.2693,W,4.87,130.75,220410,,*1D
$GPGGA,110346.080,0534.1367,N,00015.2693,W,1,09,1.0,64.3,M,20.4,M,0.0,0000*5D
$GPRMC,110347.080,A,0534.1359,N,00015.2682,W,4.43,129.90,220410,,*1A
$GPGGA,110347.080,0534.1359,N,00015.2682,W,1,09,1.0,64.4,M,20.4,M,0.0,0000*56
$GPRMC,110348.080,A,0534.1352,N,00015.2671,W,4.66,124.06,220410,,*17
$GPGGA,110348.080,0534.1352,N,00015.2671,W,1,09,1.0,64.5,M,20.4,M,0.0,0000*5F
$GPRMC,110349.080,A,0534.1346,N,00015.2658,W,5.13,113.94,220410,,*14
$GPGGA,110349.080,0534.1346,N,00015.2658,W,1,09,1.0,64.7,M,20.4,M,0.0,0000*52
$GPRMC,110350.080,A,0534.1341,N,00015.2644,W,5.27,110.61,220410,,*18
$GPGGA,110350.080,0534.1341,N,00015.2644,W,1,08,1.0,64.7,M,20.4,M,0.0,0000*51
$GPRMC,110351.080,A,0534.1335,N,00015.2630,W,5.23,115.99,220410,,*1F
$GPGGA,110351.080,0534.1335,N,00015.2630,W,1,08,1.0,64.7,M,20.4,M,0.0,0000*50
$GPRMC,110352.080,A,0534.1327,N,00015.2617,W,4.90,126.08,220410,,*1B
$GPGGA,110352.080,0534.1327,N,00015.2617,W,1,08,1.0,64.6,M,20.4,M,0.0,0000*54
$GPRMC,110353.080,A,0534.1318,N,00015.2607,W,4.71,131.92,220410,,*1D
$GPGGA,110353.080,0534.1318,N,00015.2607,W,1,08,1.0,64.5,M,20.4,M,0.0,0000*5B
$GPRMC,110354.080,A,0534.1309,N,00015.2596,W,4.80,132.76,220410,,*16
$GPGGA,110354.080,0534.1309,N,00015.2596,W,1,08,1.0,64.5,M,20.4,M,0.0,0000*57
$GPRMC,110355.080,A,0534.1299,N,00015.2586,W,4.85,131.39,220410,,*13
$GPGGA,110355.080,0534.1299,N,00015.2586,W,1,08,1.0,64.4,M,20.4,M,0.0,0000*5E
$GPRMC,110356.080,A,0534.1290,N,00015.2576,W,4.62,128.40,220410,,*19
$GPGGA,110356.080,0534.1290,N,00015.2576,W,1,08,1.0,64.4,M,20.4,M,0.0,0000*5B
$GPRMC,110357.080,A,0534.1283,N,00015.2566,W,4.61,124.24,220410,,*16
$GPGGA,110357.080,0534.1283,N,00015.2566,W,1,09,1.0,64.4,M,20.4,M,0.0,0000*58
$GPRMC,110358.079,A,0534.1275,N,00015.2555,W,5.18,122.37,220410,,*1D
$GPGGA,110358.079,0534.1275,N,00015.2555,W,1,09,1.0,64.5,M,20.4,M,0.0,0000*59
$GPRMC,110359.079,A,0534.1267,N,00015.2542,W,5.63,119.92,220410,,*12
$GPGGA,110359.079,0534.1267,N,00015.2542,W,1,09,1.0,64.8,M,20.4,M,0.0,0000*50
$GPRMC,110400.079,A,0534.1261,N,00015.2529,W,5.59,114.56,220410,,*1E
$GPGGA,110400.079,0534.1261,N,00015.2529,W,1,09,1.0,65.0,M,20.4,M,0.0,0000*59
$GPRMC,110401.079,A,0534.1255,N,00015.2515,W,5.34,108.05,220410,,*17
$GPGGA,110401.079,0534.1255,N,00015.2515,W,1,09,1.0,65.1,M,20.4,M,0.0,0000*51
$GPRMC,110402.079,A,0534.1251,N,00015.2501,W,4.92,104.69,220410,,*1E
$GPGGA,110402.079,0534.1251,N,00015.2501,W,1,09,1.0,65.1,M,20.4,M,0.0,0000*53
$GPRMC,110403.079,A,0534.1248,N,00015.2488,W,3.99,105.72,220410,,*10
$GPGGA,110403.079,0534.1248,N,00015.2488,W,1,08,1.0,65.0,M,20.4,M,0.0,0000*5A
$GPRMC,110404.079,A,0534.1246,N,00015.2478,W,3.44,109.37,220410,,*1B
$GPGGA,110404.079,0534.1246,N,00015.2478,W,1,08,1.0,65.1,M,20.4,M,0.0,0000*5D
$GPRMC,110405.079,A,0534.1242,N,00015.2470,W,3.04,114.51,220410,,*1E
$GPGGA,110405.079,0534.1242,N,00015.2470,W,1,09,1.0,64.9,M,20.4,M,0.0,0000*58
$GPRMC,110406.079,A,0534.1239,N,00015.2462,W,2.89,115.46,220410,,*11
$GPGGA,110406.079,0534.1239,N,00015.2462,W,1,08,1.0,64.6,M,20.4,M,0.0,0000*5A
$GPRMC,110407.079,A,0534.1236,N,00015.2455,W,2.99,113.29,220410,,*15
$GPGGA,110407.079,0534.1236,N,00015.2455,W,1,09,1.0,64.2,M,20.4,M,0.0,0000*55
$GPRMC,110408.079,A,0534.1233,N,00015.2447,W,2.78,114.38,220410,,*14
$GPGGA,110408.079,0534.1233,N,00015.2447,W,1,08,1.0,63.9,M,20.4,M,0.0,0000*51
$GPRMC,110409.079,A,0534.1229,N,00015.2440,W,3.15,117.75,220410,,*19
$GPGGA,110409.079,0534.1229,N,00015.2440,W,1,08,1.0,63.7,M,20.4,M,0.0,0000*52
$GPRMC,110410.079,A,0534.1224,N,00015.2433,W,3.56,122.18,220410,,*12
$GPGGA,110410.079,0534.1224,N,00015.2433,W,1,08,1.0,63.6,M,20.4,M,0.0,0000*52
$GPRMC,110411.079,A,0534.1218,N,00015.2423,W,4.74,121.51,220410,,*14
$GPGGA,110411.079,0534.1218,N,00015.2423,W,1,07,1.2,63.4,M,20.4,M,0.0,0000*52
$GPRMC,110412.079,A,0534.1210,N,00015.2412,W,5.00,122.12,220410,,*1B
$GPGGA,110412.079,0534.1210,N,00015.2412,W,1,07,1.2,63.1,M,20.4,M,0.0,0000*5E
$GPRMC,110413.079,A,0534.1203,N,00015.2401,W,4.54,126.67,220410,,*1C
$GPGGA,110413.079,0534.1203,N,00015.2401,W,1,09,1.0,62.7,M,20.4,M,0.0,0000*54
$GPRMC,110414.079,A,0534.1195,N,00015.2392,W,4.04,127.75,220410,,*1D
$GPGGA,110414.079,0534.1195,N,00015.2392,W,1,09,1.0,62.4,M,20.4,M,0.0,0000*51
$GPRMC,110415.079,A,0534.1189,N,00015.2385,W,3.13,123.91,220410,,*18
$GPGGA,110415.079,0534.1189,N,00015.2385,W,1,08,1.0,62.0,M,20.4,M,0.0,0000*5E
$GPRMC,110416.079,A,0534.1185,N,00015.2378,W,2.99,124.89,220410,,*18
$GPGGA,110416.079,0534.1185,N,00015.2378,W,1,08,1.0,61.6,M,20.4,M,0.0,0000*56
$GPRMC,110417.079,A,0534.1180,N,00015.2371,W,3.75,125.38,220410,,*1D
$GPGGA,110417.079,0534.1180,N,00015.2371,W,1,09,1.0,61.5,M,20.4,M,0.0,0000*59
$GPRMC,110418.079,A,0534.1173,N,00015.2363,W,4.14,126.13,220410,,*17
$GPGGA,110418.079,0534.1173,N,00015.2363,W,1,09,1.0,61.4,M,20.4,M,0.0,0000*58
$GPRMC,110419.079,A,0534.1166,N,00015.2353,W,4.29,128.39,220410,,*19
$GPGGA,110419.079,0534.1166,N,00015.2353,W,1,08,1.0,61.5,M,20.4,M,0.0,0000*5E
$GPRMC,110421.079,A,0534.1154,N,00015.2337,W,2.97,129.99,220410,,*19
$GPGGA,110421.079,0534.1154,N,00015.2337,W,1,08,1.0,61.0,M,20.4,M,0.0,0000*53
$GPRMC,110422.079,A,0534.1149,N,00015.2331,W,2.43,131.83,220410,,*1B
$GPGGA,110422.079,0534.1149,N,00015.2331,W,1,08,1.0,60.9,M,20.4,M,0.0,0000*52
$GPRMC,110423.079,A,0534.1144,N,00015.2325,W,2.97,125.09,220410,,*1C
$GPGGA,110423.079,0534.1144,N,00015.2325,W,1,08,1.0,60.9,M,20.4,M,0.0,0000*5B
$GPRMC,110424.078,A,0534.1139,N,00015.2317,W,3.91,119.75,220410,,*12
$GPGGA,110424.078,0534.1139,N,00015.2317,W,1,07,1.2,60.9,M,20.4,M,0.0,0000*5B
$GPRMC,110425.078,A,0534.1133,N,00015.2308,W,3.72,122.37,220410,,*14
$GPGGA,110425.078,0534.1133,N,00015.2308,W,1,09,1.0,60.8,M,20.4,M,0.0,0000*53
$GPRMC,110426.078,A,0534.1126,N,00015.2299,W,3.56,132.03,220410,,*1A
$GPGGA,110426.078,0534.1126,N,00015.2299,W,1,09,1.0,60.8,M,20.4,M,0.0,0000*5D
$GPRMC,110427.078,A,0534.1118,N,00015.2292,W,3.48,138.87,220410,,*14
$GPGGA,110427.078,0534.1118,N,00015.2292,W,1,08,1.0,60.8,M,20.4,M,0.0,0000*5B
$GPRMC,110428.078,A,0534.1111,N,00015.2286,W,3.24,139.63,220410,,*16
$GPGGA,110428.078,0534.1111,N,00015.2286,W,1,08,1.0,61.0,M,20.4,M,0.0,0000*51
$GPRMC,110429.078,A,0534.1103,N,00015.2282,W,2.90,143.10,220410,,*17
$GPGGA,110429.078,0534.1103,N,00015.2282,W,1,08,1.0,61.1,M,20.4,M,0.0,0000*56
$GPRMC,110430.078,A,0534.1097,N,00015.2278,W,2.46,144.14,220410,,*1E
$GPGGA,110430.078,0534.1097,N,00015.2278,W,1,08,1.0,61.2,M,20.4,M,0.0,0000*54
$GPRMC,110431.078,A,0534.1091,N,00015.2274,W,2.37,144.38,220410,,*1D
$GPGGA,110431.078,0534.1091,N,00015.2274,W,1,08,1.0,61.3,M,20.4,M,0.0,0000*5E
$GPRMC,110432.078,A,0534.1085,N,00015.2271,W,3.12,143.74,220410,,*17
$GPGGA,110432.078,0534.1085,N,00015.2271,W,1,08,1.0,61.2,M,20.4,M,0.0,0000*5C
$GPRMC,110433.078,A,0534.1078,N,00015.2266,W,3.39,138.69,220410,,*1B
$GPGGA,110433.078,0534.1078,N,00015.2266,W,1,08,1.0,61.1,M,20.4,M,0.0,0000*5A
$GPRMC,110434.078,A,0534.1072,N,00015.2260,W,3.23,136.72,220410,,*1F
$GPGGA,110434.078,0534.1072,N,00015.2260,W,1,09,1.0,61.1,M,20.4,M,0.0,0000*50
$GPRMC,110435.078,A,0534.1066,N,00015.2255,W,2.86,133.43,220410,,*14
$GPGGA,110435.078,0534.1066,N,00015.2255,W,1,08,1.0,61.2,M,20.4,M,0.0,0000*50
$GPRMC,110436.078,A,0534.1061,N,00015.2248,W,3.31,127.31,220410,,*11
$GPGGA,110436.078,0534.1061,N,00015.2248,W,1,09,1.0,61.3,M,20.4,M,0.0,0000*58
$GPRMC,110437.078,A,0534.1055,N,00015.2240,W,3.94,125.76,220410,,*11
$GPGGA,110437.078,0534.1055,N,00015.2240,W,1,09,1.0,61.5,M,20.4,M,0.0,0000*50
$GPRMC,110438.078,A,0534.1049,N,00015.2231,W,4.46,125.74,220410,,*1F
$GPGGA,110438.078,0534.1049,N,00015.2231,W,1,08,1.0,61.7,M,20.4,M,0.0,0000*57
$GPRMC,110439.078,A,0534.1042,N,00015.2220,W,4.57,123.18,220410,,*19
$GPGGA,110439.078,0534.1042,N,00015.2220,W,1,08,1.0,61.8,M,20.4,M,0.0,0000*52
$GPRMC,110440.078,A,0534.1035,N,00015.2210,W,4.42,120.06,220410,,*1C
$GPGGA,110440.078,0534.1035,N,00015.2210,W,1,09,1.0,61.8,M,20.4,M,0.0,0000*5E
$GPRMC,110441.078,A,0534.1029,N,00015.2199,W,4.19,120.55,220410,,*1A
$GPGGA,110441.078,0534.1029,N,00015.2199,W,1,09,1.0,61.7,M,20.4,M,0.0,0000*5F
$GPRMC,110442.078,A,0534.1023,N,00015.2188,W,4.31,118.96,220410,,*1D
$GPGGA,110442.078,0534.1023,N,00015.2188,W,1,09,1.0,61.5,M,20.4,M,0.0,0000*54
$GPRMC,110443.078,A,0534.1017,N,00015.2177,W,4.56,116.08,220410,,*13
$GPGGA,110443.078,0534.1017,N,00015.2177,W,1,09,1.0,61.1,M,20.4,M,0.0,0000*56
$GPRMC,110444.078,A,0534.1011,N,00015.2166,W,4.49,116.75,220410,,*16
$GPGGA,110444.078,0534.1011,N,00015.2166,W,1,09,1.0,60.7,M,20.4,M,0.0,0000*50
$GPRMC,110445.078,A,0534.1006,N,00015.2155,W,4.46,118.32,220410,,*13
$GPGGA,110445.078,0534.1006,N,00015.2155,W,1,09,1.0,60.3,M,20.4,M,0.0,0000*53
$GPRMC,110446.078,A,0534.1000,N,00015.2145,W,3.97,124.09,220410,,*1B
$GPGGA,110446.078,0534.1000,N,00015.2145,W,1,09,1.0,60.1,M,20.4,M,0.0,0000*55
$GPRMC,110447.078,A,0534.0993,N,00015.2137,W,3.49,128.84,220410,,*17
$GPGGA,110447.078,0534.0993,N,00015.2137,W,1,09,1.0,59.9,M,20.4,M,0.0,0000*51
$GPRMC,110448.078,A,0534.0987,N,00015.2130,W,3.47,130.85,220410,,*1C
$GPGGA,110448.078,0534.0987,N,00015.2130,W,1,09,1.0,59.8,M,20.4,M,0.0,0000*5D
$GPRMC,110449.078,A,0534.0980,N,00015.2122,W,3.94,131.42,220410,,*1D
$GPGGA,110449.078,0534.0980,N,00015.2122,W,1,09,1.0,59.7,M,20.4,M,0.0,0000*57
$GPRMC,110450.077,A,0534.0973,N,00015.2113,W,4.49,129.26,220410,,*18
$GPGGA,110450.077,0534.0973,N,00015.2113,W,1,09,1.0,59.7,M,20.4,M,0.0,0000*5E
$GPRMC,110451.077,A,0534.0964,N,00015.2103,W,4.99,125.83,220410,,*10
$GPGGA,110451.077,0534.0964,N,00015.2103,W,1,09,1.0,59.6,M,20.4,M,0.0,0000*59
$GPRMC,110452.077,A,0534.0956,N,00015.2091,W,5.44,123.77,220410,,*14
$GPGGA,110452.077,0534.0956,N,00015.2091,W,1,08,1.0,59.5,M,20.4,M,0.0,0000*53
$GPRMC,110453.077,A,0534.0947,N,00015.2077,W,5.98,121.48,220410,,*12
$GPGGA,110453.077,0534.0947,N,00015.2077,W,1,08,1.0,59.3,M,20.4,M,0.0,0000*5C
$GPRMC,110454.077,A,0534.0938,N,00015.2062,W,6.15,121.50,220410,,*16
$GPGGA,110454.077,0534.0938,N,00015.2062,W,1,09,1.0,59.1,M,20.4,M,0.0,0000*54
$GPRMC,110455.077,A,0534.0929,N,00015.2047,W,6.29,119.97,220410,,*1F
$GPGGA,110455.077,0534.0929,N,00015.2047,W,1,09,1.0,59.1,M,20.4,M,0.0,0000*52
$GPRMC,110456.077,A,0534.0920,N,00015.2031,W,6.52,118.40,220410,,*13
$GPGGA,110456.077,0534.0920,N,00015.2031,W,1,09,1.0,59.3,M,20.4,M,0.0,0000*5B
$GPRMC,110457.077,A,0534.0911,N,00015.2015,W,6.72,118.84,220410,,*1C
$GPGGA,110457.077,0534.0911,N,00015.2015,W,1,08,1.0,59.3,M,20.4,M,0.0,0000*5F
$GPRMC,110458.077,A,0534.0902,N,00015.1998,W,6.62,119.40,220410,,*16
$GPGGA,110458.077,0534.0902,N,00015.1998,W,1,09,1.0,59.2,M,20.4,M,0.0,0000*5D
$GPRMC,110459.077,A,0534.0893,N,00015.1983,W,5.97,121.78,220410,,*1D
$GPGGA,110459.077,0534.0893,N,00015.1983,W,1,08,1.0,59.0,M,20.4,M,0.0,0000*5C
$GPRMC,110500.077,A,0534.0885,N,00015.1969,W,5.35,122.00,220410,,*17
$GPGGA,110500.077,0534.0885,N,00015.1969,W,1,09,1.0,58.9,M,20.4,M,0.0,0000*5B
$GPRMC,110501.077,A,0534.0877,N,00015.1957,W,5.25,120.27,220410,,*10
$GPGGA,110501.077,0534.0877,N,00015.1957,W,1,09,1.0,58.9,M,20.4,M,0.0,0000*5A
$GPRMC,110502.077,A,0534.0869,N,00015.1944,W,5.25,121.16,220410,,*1D
$GPGGA,110502.077,0534.0869,N,00015.1944,W,1,09,1.0,58.8,M,20.4,M,0.0,0000*55
$GPRMC,110503.077,A,0534.0862,N,00015.1932,W,5.10,123.86,220410,,*1B
$GPGGA,110503.077,0534.0862,N,00015.1932,W,1,09,1.0,58.8,M,20.4,M,0.0,0000*5E
$GPRMC,110504.077,A,0534.0854,N,00015.1920,W,5.39,122.03,220410,,*1D
$GPGGA,110504.077,0534.0854,N,00015.1920,W,1,09,1.0,58.7,M,20.4,M,0.0,0000*50
$GPRMC,110505.077,A,0534.0846,N,00015.1906,W,5.75,119.12,220410,,*1B
$GPGGA,110505.077,0534.0846,N,00015.1906,W,1,09,1.0,58.8,M,20.4,M,0.0,0000*59
$GPRMC,110506.077,A,0534.0839,N,00015.1891,W,6.06,113.28,220410,,*1B
$GPGGA,110506.077,0534.0839,N,00015.1891,W,1,09,1.0,58.9,M,20.4,M,0.0,0000*5C
$GPRMC,110507.077,A,0534.0832,N,00015.1875,W,6.31,109.82,220410,,*14
$GPGGA,110507.077,0534.0832,N,00015.1875,W,1,08,1.0,59.1,M,20.4,M,0.0,0000*54
$GPRMC,110508.077,A,0534.0826,N,00015.1859,W,6.05,111.68,220410,,*1A
$GPGGA,110508.077,0534.0826,N,00015.1859,W,1,08,1.0,59.2,M,20.4,M,0.0,0000*53
$GPRMC,110509.077,A,0534.0819,N,00015.1844,W,5.70,119.01,220410,,*1D
$GPGGA,110509.077,0534.0819,N,00015.1844,W,1,09,1.0,59.3,M,20.4,M,0.0,0000*52
$GPRMC,110510.077,A,0534.0811,N,00015.1831,W,4.73,125.19,220410,,*1B
$GPGGA,110510.077,0534.0811,N,00015.1831,W,1,09,1.0,59.4,M,20.4,M,0.0,0000*57
$GPRMC,110511.077,A,0534.0805,N,00015.1823,W,3.05,125.66,220410,,*12
$GPGGA,110511.077,0534.0805,N,00015.1823,W,1,09,1.0,59.6,M,20.4,M,0.0,0000*52
$GPRMC,110512.077,A,0534.0802,N,00015.1817,W,2.04,124.55,220410,,*10
$GPGGA,110512.077,0534.0802,N,00015.1817,W,1,09,1.0,59.7,M,20.4,M,0.0,0000*50
$GPRMC,110513.077,A,0534.0799,N,00015.1813,W,1.84,123.14,220410,,*11
$GPGGA,110513.077,0534.0799,N,00015.1813,W,1,09,1.0,59.7,M,20.4,M,0.0,0000*58
$GPRMC,110514.077,A,0534.0798,N,00015.1809,W,1.70,115.79,220410,,*19
$GPGGA,110514.077,0534.0798,N,00015.1809,W,1,08,1.0,59.7,M,20.4,M,0.0,0000*54
$GPRMC,110515.076,A,0534.0797,N,00015.1806,W,1.04,116.01,220410,,*16
$GPGGA,110515.076,0534.0797,N,00015.1806,W,1,08,1.0,59.7,M,20.4,M,0.0,0000*54
$GPRMC,110516.076,A,0534.0796,N,00015.1805,W,0.23,116.15,220410,,*16
$GPGGA,110516.076,0534.0796,N,00015.1805,W,1,08,1.0,59.3,M,20.4,M,0.0,0000*51
$GPRMC,110517.076,A,0534.0796,N,00015.1805,W,0.44,120.31,220410,,*15
$GPGGA,110517.076,0534.0796,N,00015.1805,W,1,08,1.0,59.0,M,20.4,M,0.0,0000*53
$GPRMC,110518.076,A,0534.0795,N,00015.1804,W,1.04,128.01,220410,,*16
$GPGGA,110518.076,0534.0795,N,00015.1804,W,1,08,1.0,58.9,M,20.4,M,0.0,0000*56
$GPRMC,110519.076,A,0534.0794,N,00015.1802,W,0.79,129.97,220410,,*15
$GPGGA,110519.076,0534.0794,N,00015.1802,W,1,09,1.0,58.9,M,20.4,M,0.0,0000*51
$GPRMC,110520.076,A,0534.0792,N,00015.1801,W,1.07,131.37,220410,,*11
$GPGGA,110520.076,0534.0792,N,00015.1801,W,1,09,1.0,59.0,M,20.4,M,0.0,0000*56
$GPRMC,110521.076,A,0534.0790,N,00015.1799,W,0.93,137.39,220410,,*18
$GPGGA,110521.076,0534.0790,N,00015.1799,W,1,08,1.0,59.0,M,20.4,M,0.0,0000*5A
$GPRMC,110522.076,A,0534.0788,N,00015.1797,W,1.38,143.90,220410,,*1C
$GPGGA,110522.076,0534.0788,N,00015.1797,W,1,08,1.0,59.0,M,20.4,M,0.0,0000*5E
$GPRMC,110523.076,A,0534.0784,N,00015.1795,W,1.77,148.83,220410,,*11
$GPGGA,110523.076,0534.0784,N,00015.1795,W,1,08,1.0,59.0,M,20.4,M,0.0,0000*51
$GPRMC,110524.076,A,0534.0780,N,00015.1794,W,1.44,156.60,220410,,*11
$GPGGA,110524.076,0534.0780,N,00015.1794,W,1,08,1.0,59.0,M,20.4,M,0.0,0000*53
$GPRMC,110525.076,A,0534.0776,N,00015.1793,W,1.39,155.24,220410,,*17
$GPGGA,110525.076,0534.0776,N,00015.1793,W,1,08,1.0,58.9,M,20.4,M,0.0,0000*54
$GPRMC,110526.076,A,0534.0773,N,00015.1793,W,0.59,153.61,220410,,*11
$GPGGA,110526.076,0534.0773,N,00015.1793,W,1,09,1.0,58.8,M,20.4,M,0.0,0000*52
$GPRMC,110527.076,A,0534.0771,N,00015.1794,W,0.88,161.17,220410,,*19
$GPGGA,110527.076,0534.0771,N,00015.1794,W,1,09,1.0,58.6,M,20.4,M,0.0,0000*58
$GPRMC,110528.076,A,0534.0770,N,00015.1794,W,0.49,157.29,220410,,*12
$GPGGA,110528.076,0534.0770,N,00015.1794,W,1,09,1.0,58.4,M,20.4,M,0.0,0000*54
$GPRMC,110529.076,A,0534.0768,N,00015.1795,W,0.81,161.26,220410,,*15
$GPGGA,110529.076,0534.0768,N,00015.1795,W,1,09,1.0,58.4,M,20.4,M,0.0,0000*5D
$GPRMC,110530.076,A,0534.0766,N,00015.1795,W,0.95,160.49,220410,,*1E
$GPGGA,110530.076,0534.0766,N,00015.1795,W,1,09,1.0,58.4,M,20.4,M,0.0,0000*5B
$GPRMC,110531.076,A,0534.0765,N,00015.1795,W,0.34,154.46,220410,,*1F
$GPGGA,110531.076,0534.0765,N,00015.1795,W,1,09,1.0,58.4,M,20.4,M,0.0,0000*59
$GPRMC,110532.076,A,0534.0764,N,00015.1795,W,0.33,154.60,220410,,*1E
$GPGGA,110532.076,0534.0764,N,00015.1795,W,1,09,1.0,58.4,M,20.4,M,0.0,0000*5B
$GPRMC,110533.076,A,0534.0765,N,00015.1795,W,0.18,152.41,220410,,*12
$GPGGA,110533.076,0534.0765,N,00015.1795,W,1,08,1.0,58.1,M,20.4,M,0.0,0000*5F
$GPRMC,110534.076,A,0534.0765,N,00015.1795,W,0.03,102.82,220410,,*15
$GPGGA,110534.076,0534.0765,N,00015.1795,W,1,08,1.0,57.7,M,20.4,M,0.0,0000*51
$GPRMC,110535.076,A,0534.0767,N,00015.1794,W,0.27,355.95,220410,,*17
$GPGGA,110535.076,0534.0767,N,00015.1794,W,1,08,1.0,57.3,M,20.4,M,0.0,0000*57
$GPRMC,110536.076,A,0534.0769,N,00015.1795,W,0.38,353.01,220410,,*1E
$GPGGA,110536.076,0534.0769,N,00015.1795,W,1,09,1.0,57.2,M,20.4,M,0.0,0000*5B
$GPRMC,110537.076,A,0534.0770,N,00015.1795,W,0.20,353.11,220410,,*1F
$GPGGA,110537.076,0534.0770,N,00015.1795,W,1,08,1.0,56.8,M,20.4,M,0.0,0000*58
$GPRMC,110538.076,A,0534.0771,N,00015.1795,W,0.09,80.64,220410,,*25
$GPGGA,110538.076,0534.0771,N,00015.1795,W,1,09,1.0,56.6,M,20.4,M,0.0,0000*59
$GPRMC,110539.076,A,0534.0771,N,00015.1796,W,0.04,83.69,220410,,*24
$GPGGA,110539.076,0534.0771,N,00015.1796,W,1,09,1.0,56.6,M,20.4,M,0.0,0000*5B
$GPRMC,110540.076,A,0534.0771,N,00015.1796,W,0.04,77.94,220410,,*23
$GPGGA,110540.076,0534.0771,N,00015.1796,W,1,09,1.0,56.7,M,20.4,M,0.0,0000*54
$GPRMC,110541.075,A,0534.0771,N,00015.1796,W,0.04,84.19,220410,,*28
$GPGGA,110541.075,0534.0771,N,00015.1796,W,1,09,1.0,56.9,M,20.4,M,0.0,0000*58
$GPRMC,110542.075,A,0534.0771,N,00015.1797,W,0.06,59.43,220410,,*27
$GPGGA,110542.075,0534.0771,N,00015.1797,W,1,09,1.0,57.3,M,20.4,M,0.0,0000*51
$GPRMC,110543.075,A,0534.0771,N,00015.1797,W,0.04,69.91,220410,,*28
$GPGGA,110543.075,0534.0771,N,00015.1797,W,1,09,1.0,57.8,M,20.4,M,0.0,0000*5B
$GPRMC,110544.075,A,0534.0770,N,00015.1797,W,0.15,4.64,220410,,*1F
$GPGGA,110544.075,0534.0770,N,00015.1797,W,1,09,1.0,58.6,M,20.4,M,0.0,0000*5C
$GPRMC,110545.075,A,0534.0769,N,00015.1798,W,0.05,29.45,220410,,*24
$GPGGA,110545.075,0534.0769,N,00015.1798,W,1,09,1.0,59.3,M,20.4,M,0.0,0000*5E
$GPRMC,110546.075,A,0534.0769,N,00015.1798,W,0.36,346.71,220410,,*1A
$GPGGA,110546.075,0534.0769,N,00015.1798,W,1,09,1.0,59.8,M,20.4,M,0.0,0000*56
$GPRMC,110547.075,A,0534.0770,N,00015.1799,W,0.63,339.61,220410,,*1B
$GPGGA,110547.075,0534.0770,N,00015.1799,W,1,08,1.0,60.0,M,20.4,M,0.0,0000*5D
$GPRMC,110548.075,A,0534.0772,N,00015.1800,W,0.89,343.50,220410,,*12
$GPGGA,110548.075,0534.0772,N,00015.1800,W,1,09,1.0,60.1,M,20.4,M,0.0,0000*5F
$GPRMC,110549.075,A,0534.0774,N,00015.1802,W,0.58,344.41,220410,,*1C
$GPGGA,110549.075,0534.0774,N,00015.1802,W,1,09,1.0,60.0,M,20.4,M,0.0,0000*5B
$GPRMC,110550.075,A,0534.0777,N,00015.1803,W,1.34,342.63,220410,,*1B
$GPGGA,110550.075,0534.0777,N,00015.1803,W,1,09,1.0,59.7,M,20.4,M,0.0,0000*5C
$GPRMC,110551.075,A,0534.0781,N,00015.1805,W,1.45,338.18,220410,,*12
$GPGGA,110551.075,0534.0781,N,00015.1805,W,1,09,1.0,59.5,M,20.4,M,0.0,0000*50
$GPRMC,110552.075,A,0534.0784,N,00015.1806,W,1.31,352.16,220410,,*16
$GPGGA,110552.075,0534.0784,N,00015.1806,W,1,08,1.0,59.3,M,20.4,M,0.0,0000*52
$GPRMC,110553.075,A,0534.0788,N,00015.1807,W,1.47,346.21,220410,,*1A
$GPGGA,110553.075,0534.0788,N,00015.1807,W,1,08,1.0,59.2,M,20.4,M,0.0,0000*5F
$GPRMC,110554.075,A,0534.0793,N,00015.1808,W,1.60,351.99,220410,,*18
$GPGGA,110554.075,0534.0793,N,00015.1808,W,1,08,1.0,59.1,M,20.4,M,0.0,0000*5E
$GPRMC,110555.075,A,0534.0797,N,00015.1808,W,1.30,7.99,220410,,*18
$GPGGA,110555.075,0534.0797,N,00015.1808,W,1,08,1.0,59.0,M,20.4,M,0.0,0000*5A
$GPRMC,110556.075,A,0534.0801,N,00015.1808,W,0.98,16.98,220410,,*29
$GPGGA,110556.075,0534.0801,N,00015.1808,W,1,08,1.0,58.9,M,20.4,M,0.0,0000*51
$GPRMC,110557.075,A,0534.0803,N,00015.1807,W,0.92,14.93,220410,,*26
$GPGGA,110557.075,0534.0803,N,00015.1807,W,1,08,1.0,58.7,M,20.4,M,0.0,0000*53
$GPRMC,110558.075,A,0534.0806,N,00015.1806,W,1.02,23.07,220410,,*2C
$GPGGA,110558.075,0534.0806,N,00015.1806,W,1,08,1.0,58.6,M,20.4,M,0.0,0000*59
$GPRMC,110559.075,A,0534.0808,N,00015.1805,W,0.25,34.34,220410,,*22
$GPGGA,110559.075,0534.0808,N,00015.1805,W,1,08,1.0,58.5,M,20.4,M,0.0,0000*56
$GPRMC,110600.075,A,0534.0808,N,00015.1805,W,0.07,108.86,220410,,*1A
$GPGGA,110600.075,0534.0808,N,00015.1805,W,1,08,1.0,58.4,M,20.4,M,0.0,0000*58
$GPRMC,110601.075,A,0534.0807,N,00015.1806,W,0.48,222.22,220410,,*19
$GPGGA,110601.075,0534.0807,N,00015.1806,W,1,08,1.0,58.4,M,20.4,M,0.0,0000*55
$GPRMC,110602.075,A,0534.0805,N,00015.1807,W,0.93,217.48,220410,,*15
$GPGGA,110602.075,0534.0805,N,00015.1807,W,1,08,1.0,58.4,M,20.4,M,0.0,0000*55
$GPRMC,110603.075,A,0534.0802,N,00015.1810,W,1.20,233.37,220410,,*12
$GPGGA,110603.075,0534.0802,N,00015.1810,W,1,08,1.0,58.5,M,20.4,M,0.0,0000*54
$GPRMC,110604.075,A,0534.0801,N,00015.1813,W,1.27,252.64,220410,,*13
$GPGGA,110604.075,0534.0801,N,00015.1813,W,1,08,1.0,58.4,M,20.4,M,0.0,0000*52
$GPRMC,110605.075,A,0534.0801,N,00015.1814,W,0.06,100.89,220410,,*10
$GPGGA,110605.075,0534.0801,N,00015.1814,W,1,08,1.0,58.3,M,20.4,M,0.0,0000*53
$GPRMC,110606.075,A,0534.0802,N,00015.1813,W,0.49,73.70,220410,,*2F
$GPGGA,110606.075,0534.0802,N,00015.1813,W,1,08,1.0,58.3,M,20.4,M,0.0,0000*54
$GPRMC,110607.074,A,0534.0804,N,00015.1811,W,0.92,60.62,220410,,*2C
$GPGGA,110607.074,0534.0804,N,00015.1811,W,1,08,1.0,58.3,M,20.4,M,0.0,0000*50
$GPRMC,110608.074,A,0534.0805,N,00015.1809,W,0.44,55.06,220410,,*24
$GPGGA,110608.074,0534.0805,N,00015.1809,W,1,08,1.0,58.3,M,20.4,M,0.0,0000*57
$GPRMC,110609.074,A,0534.0807,N,00015.1807,W,0.80,50.23,220410,,*23
$GPGGA,110609.074,0534.0807,N,00015.1807,W,1,08,1.0,58.3,M,20.4,M,0.0,0000*5A
$GPRMC,110610.074,A,0534.0809,N,00015.1804,W,1.70,54.40,220410,,*29
$GPGGA,110610.074,0534.0809,N,00015.1804,W,1,08,1.0,58.3,M,20.4,M,0.0,0000*5F
$GPRMC,110611.074,A,0534.0812,N,00015.1800,W,1.67,61.17,220410,,*24
$GPGGA,110611.074,0534.0812,N,00015.1800,W,1,08,1.0,58.1,M,20.4,M,0.0,0000*52
$GPRMC,110612.074,A,0534.0814,N,00015.1798,W,0.51,67.19,220410,,*23
$GPGGA,110612.074,0534.0814,N,00015.1798,W,1,08,1.0,58.1,M,20.4,M,0.0,0000*59
$GPRMC,110613.074,A,0534.0814,N,00015.1798,W,0.80,253.52,220410,,*14
$GPGGA,110613.074,0534.0814,N,00015.1798,W,1,08,1.0,58.1,M,20.4,M,0.0,0000*58
$GPRMC,110614.074,A,0534.0814,N,00015.1802,W,1.80,264.49,220410,,*10
$GPGGA,110614.074,0534.0814,N,00015.1802,W,1,08,1.0,58.1,M,20.4,M,0.0,0000*53
$GPRMC,110615.074,A,0534.0815,N,00015.1809,W,2.60,274.06,220410,,*1C
$GPGGA,110615.074,0534.0815,N,00015.1809,W,1,08,1.0,58.3,M,20.4,M,0.0,0000*5A
$GPRMC,110616.074,A,0534.0816,N,00015.1817,W,3.03,288.29,220410,,*19
$GPGGA,110616.074,0534.0816,N,00015.1817,W,1,08,1.0,58.5,M,20.4,M,0.0,0000*53
$GPRMC,110617.074,A,0534.0820,N,00015.1826,W,3.59,295.51,220410,,*13
$GPGGA,110617.074,0534.0820,N,00015.1826,W,1,08,1.0,58.7,M,20.4,M,0.0,0000*57
$GPRMC,110618.074,A,0534.0825,N,00015.1836,W,4.33,297.66,220410,,*15
$GPGGA,110618.074,0534.0825,N,00015.1836,W,1,08,1.0,58.9,M,20.4,M,0.0,0000*52
$GPRMC,110619.074,A,0534.0831,N,00015.1848,W,5.41,296.45,220410,,*1C
$GPGGA,110619.074,0534.0831,N,00015.1848,W,1,08,1.0,59.0,M,20.4,M,0.0,0000*57
$GPRMC,110620.074,A,0534.0837,N,00015.1863,W,6.05,293.70,220410,,*19
$GPGGA,110620.074,0534.0837,N,00015.1863,W,1,09,1.0,58.9,M,20.4,M,0.0,0000*5B
$GPRMC,110621.074,A,0534.0844,N,00015.1879,W,6.67,290.56,220410,,*14
$GPGGA,110621.074,0534.0844,N,00015.1879,W,1,08,1.0,58.7,M,20.4,M,0.0,0000*5A
$GPRMC,110622.074,A,0534.0851,N,00015.1897,W,6.86,291.61,220410,,*19
$GPGGA,110622.074,0534.0851,N,00015.1897,W,1,08,1.0,58.6,M,20.4,M,0.0,0000*5C
$GPRMC,110623.074,A,0534.0858,N,00015.1915,W,6.79,293.86,220410,,*11
$GPGGA,110623.074,0534.0858,N,00015.1915,W,1,09,1.0,58.5,M,20.4,M,0.0,0000*5D
$GPRMC,110624.074,A,0534.0867,N,00015.1932,W,6.75,295.89,220410,,*1A
$GPGGA,110624.074,0534.0867,N,00015.1932,W,1,09,1.0,58.5,M,20.4,M,0.0,0000*53
$GPRMC,110625.074,A,0534.0875,N,00015.1949,W,6.63,298.83,220410,,*14
$GPGGA,110625.074,0534.0875,N,00015.1949,W,1,09,1.0,58.4,M,20.4,M,0.0,0000*5C
$GPRMC,110626.074,A,0534.0885,N,00015.1965,W,6.35,301.35,220410,,*19
$GPGGA,110626.074,0534.0885,N,00015.1965,W,1,09,1.0,58.5,M,20.4,M,0.0,0000*5F
$GPRMC,110627.074,A,0534.0894,N,00015.1979,W,6.25,303.82,220410,,*1A
$GPGGA,110627.074,0534.0894,N,00015.1979,W,1,09,1.0,58.6,M,20.4,M,0.0,0000*50
$GPRMC,110628.074,A,0534.0904,N,00015.1994,W,6.31,305.73,220410,,*13
$GPGGA,110628.074,0534.0904,N,00015.1994,W,1,09,1.0,58.8,M,20.4,M,0.0,0000*5A
$GPRMC,110629.074,A,0534.0915,N,00015.2009,W,6.67,306.37,220410,,*1C
$GPGGA,110629.074,0534.0915,N,00015.2009,W,1,09,1.0,59.2,M,20.4,M,0.0,0000*5E
$GPRMC,110630.074,A,0534.0926,N,00015.2025,W,7.02,303.92,220410,,*12
$GPGGA,110630.074,0534.0926,N,00015.2025,W,1,08,1.0,59.3,M,20.4,M,0.0,0000*58
$GPRMC,110631.074,A,0534.0937,N,00015.2042,W,7.14,300.40,220410,,*19
$GPGGA,110631.074,0534.0937,N,00015.2042,W,1,08,1.0,59.3,M,20.4,M,0.0,0000*58
$GPRMC,110632.073,A,0534.0947,N,00015.2060,W,7.51,301.97,220410,,*10
$GPGGA,110632.073,0534.0947,N,00015.2060,W,1,09,1.0,59.5,M,20.4,M,0.0,0000*5C
$GPRMC,110633.073,A,0534.0959,N,00015.2078,W,7.67,303.48,220410,,*12
$GPGGA,110633.073,0534.0959,N,00015.2078,W,1,09,1.0,59.6,M,20.4,M,0.0,0000*58
$GPRMC,110634.073,A,0534.0970,N,00015.2096,W,7.24,302.13,220410,,*16
$GPGGA,110634.073,0534.0970,N,00015.2096,W,1,08,1.0,59.7,M,20.4,M,0.0,0000*54
$GPRMC,110635.073,A,0534.0980,N,00015.2112,W,6.77,302.58,220410,,*1D
$GPGGA,110635.073,0534.0980,N,00015.2112,W,1,09,1.0,59.8,M,20.4,M,0.0,0000*59
$GPRMC,110636.073,A,0534.0990,N,00015.2128,W,6.39,304.28,220410,,*1D
$GPGGA,110636.073,0534.0990,N,00015.2128,W,1,09,1.0,60.0,M,20.4,M,0.0,0000*50
$GPRMC,110637.073,A,0534.1000,N,00015.2142,W,6.14,305.66,220410,,*15
$GPGGA,110637.073,0534.1000,N,00015.2142,W,1,09,1.0,60.3,M,20.4,M,0.0,0000*5F
$GPRMC,110638.073,A,0534.1010,N,00015.2156,W,5.97,306.98,220410,,*14
$GPGGA,110638.073,0534.1010,N,00015.2156,W,1,08,1.0,60.5,M,20.4,M,0.0,0000*53
$GPRMC,110639.073,A,0534.1020,N,00015.2169,W,5.94,305.47,220410,,*18
$GPGGA,110639.073,0534.1020,N,00015.2169,W,1,09,1.0,60.8,M,20.4,M,0.0,0000*51
$GPRMC,110640.073,A,0534.1029,N,00015.2183,W,5.97,305.21,220410,,*18
$GPGGA,110640.073,0534.1029,N,00015.2183,W,1,08,1.0,61.1,M,20.4,M,0.0,0000*5B
$GPRMC,110641.073,A,0534.1039,N,00015.2196,W,5.88,305.28,220410,,*1B
$GPGGA,110641.073,0534.1039,N,00015.2196,W,1,09,1.0,61.3,M,20.4,M,0.0,0000*5C
$GPRMC,110642.073,A,0534.1048,N,00015.2209,W,5.83,305.84,220410,,*16
$GPGGA,110642.073,0534.1048,N,00015.2209,W,1,08,1.0,61.4,M,20.4,M,0.0,0000*5A
$GPRMC,110643.073,A,0534.1057,N,00015.2222,W,5.42,304.22,220410,,*10
$GPGGA,110643.073,0534.1057,N,00015.2222,W,1,08,1.0,61.5,M,20.4,M,0.0,0000*5D
$GPRMC,110644.073,A,0534.1065,N,00015.2234,W,4.91,303.23,220410,,*18
$GPGGA,110644.073,0534.1065,N,00015.2234,W,1,09,1.0,61.8,M,20.4,M,0.0,0000*50
