                             GD30L MMC DATA LOGGER
+-----------------------------------------------------------------------------+
  UPDATE rate: 01 second(s)
  RECORD sentence(s): RMC, GGA
+-----------------------------------------------------------------------------+
$GPRMC,100002.436,A,0534.7160,N,00012.7171,W,14.43,306.28,220410,,*2A
$GPGGA,100002.436,0534.7160,N,00012.7171,W,1,08,1.0,62.1,M,20.4,M,0.0,0000*59
$GPRMC,100003.436,A,0534.7184,N,00012.7205,W,14.80,305.28,220410,,*2D
$GPGGA,100004.436,0534.7209,N,00012.7239,W,1,07,1.0,61.7,M,20.4,M,0.0,0000*56
$GPRMC,100005.436,A,0534.7233,N,00012.7271,W,14.08,308.49,220410,,*2D
$GPGGA,100005.436,0534.7233,N,00012.7271,W,1,08,1.0,61.5,M,20.4,M,0.0,0000*5F
$GPRMC,100006.436,A,0534.7258,N,00012.7302,W,14.41,308.12,220410,,*25
$GPGGA,100006.436,0534.7258,N,00012.7302,W,1,07,1.0,61.4,M,20.4,M,0.0,0000*5A
$GPRMC,100007.436,A,0534.7283,N,00012.7336,W,15.27,307.87,220410,,*27
$GPGGA,100007.436,0534.7283,N,00012.7336,W,1,07,1.0,61.4,M,20.4,M,0.0,0000*5A
$GPRMC,100008.436,A,0534.7310,N,00012.7372,W,16.55,307.38,220410,,*21
$GPGGA,100008.436,0534.7310,N,00012.7372,W,1,08,1.0,61.6,M,20.4,M,0.0,0000*53
$GPRMC,100009.436,A,0534.7339,N,00012.7411,W,17.74,306.79,220410,,*2F
$GPGGA,100009.436,0534.7339,N,00012.7411,W,1,07,1.2,61.8,M,20.4,M,0.0,0000*58
$GPRMC,100010.436,A,0534.7369,N,00012.7453,W,18.36,306.72,220410,,*26
$GPGGA,100010.436,0534.7369,N,00012.7453,W,1,07,1.2,61.9,M,20.4,M,0.0,0000*52
$GPRMC,100010.436,A,0534.7369,N,00012.7453,W,18.36,306.72,220410,,*26
$GPGGA,100011.436,0534.7400,N,00012.7495,W,1,07,1.2,61.9,M,20.4,M,0.0,0000*51
$GPRMC,100011.436,A,0534.7400,N,00012.7495,W,18.16,306.64,220410,,*20
$GPGGA,100012.436,0534.7429,N,00012.7534,W,1,07,1.0,61.8,M,20.4,M,0.0,0000*50
$GPRMC,100013.436,A,0534.7458,N,00012.7572,W,16.59,307.35,220410,,*27
$GPGGA,100013.436,0534.7458,N,00012.7572,W,1,08,1.0,61.6,M,20.4,M,0.0,0000*54
$GPRMC,100014.436,A,0534.7485,N,00012.7608,W,15.43,307.91,220410,,*28
$GPGGA,100014.436,0534.7485,N,00012.7608,W,1,08,1.0,61.8,M,20.4,M,0.0,0000*53
$GPRMC,100014.436,A,0534.7485,N,00012.7608,W,15.43,307.91,220410,,*28
$GPGGA,100015.436,0534.7509,N,00012.7641,W,1,07,1.2,62.2,M,20.4,M,0.0,0000*5E
$GPRMC,100016.436,A,0534.7532,N,00012.7672,W,13.30,306.57,220410,,*23
$GPGGA,100016.436,0534.7532,N,00012.7672,W,1,08,1.0,62.3,M,20.4,M,0.0,0000*59
$GPRMC,100016.436,A,0534.7532,N,00012.7672,W,13.30,306.57,220410,,*23
$GPGGA,100017.436,0534.7554,N,00012.7701,W,1,08,1.0,62.3,M,20.4,M,0.0,0000*5D
$GPRMC,100018.436,A,0534.7577,N,00012.7729,W,12.85,309.89,220410,,*20
$GPGGA,100018.436,0534.7577,N,00012.7729,W,1,08,1.0,62.2,M,20.4,M,0.0,0000*58
$GPRMC,100018.436,A,0534.7577,N,00012.7729,W,12.85,309.89,220410,,*20
$GPGGA,100019.436,0534.7600,N,00012.7757,W,1,08,1.0,62.0,M,20.4,M,0.0,0000*51
$GPRMC,100020.436,A,0534.7623,N,00012.7787,W,13.67,305.97,220410,,*23
$GPGGA,100020.436,0534.7623,N,00012.7787,W,1,08,1.0,61.8,M,20.4,M,0.0,0000*5C
$GPRMC,100020.436,A,0534.7623,N,00012.7787,W,13.67,305.97,220410,,*23
$GPGGA,100021.436,0534.7646,N,00012.7817,W,1,08,1.0,61.4,M,20.4,M,0.0,0000*54
$GPRMC,100021.436,A,0534.7646,N,00012.7817,W,13.78,306.13,220410,,*26
$GPGGA,100022.436,0534.7669,N,00012.7848,W,1,08,1.0,61.1,M,20.4,M,0.0,0000*55
$GPRMC,100022.436,A,0534.7669,N,00012.7848,W,13.71,306.38,220410,,*22
$GPGGA,100023.436,0534.7692,N,00012.7877,W,1,08,1.0,60.9,M,20.4,M,0.0,0000*55
$GPRMC,100023.436,A,0534.7692,N,00012.7877,W,13.43,307.90,220410,,*29
$GPGGA,100024.435,0534.7715,N,00012.7906,W,1,07,1.0,60.7,M,20.4,M,0.0,0000*59
$GPRMC,100024.435,A,0534.7715,N,00012.7906,W,13.36,309.03,220410,,*22
$GPGGA,100025.435,0534.7738,N,00012.7935,W,1,07,1.0,60.3,M,20.4,M,0.0,0000*53
$GPRMC,100026.435,A,0534.7761,N,00012.7964,W,13.62,307.96,220410,,*24
$GPGGA,100026.435,0534.7761,N,00012.7964,W,1,08,1.0,60.0,M,20.4,M,0.0,0000*54
$GPRMC,100026.435,A,0534.7761,N,00012.7964,W,13.62,307.96,220410,,*24
$GPGGA,100027.435,0534.7785,N,00012.7995,W,1,08,1.0,59.7,M,20.4,M,0.0,0000*5C
$GPRMC,100027.435,A,0534.7785,N,00012.7995,W,14.25,306.89,220410,,*2A
$GPGGA,100028.435,0534.7809,N,00012.8027,W,1,08,1.0,59.4,M,20.4,M,0.0,0000*54
$GPRMC,100028.435,A,0534.7809,N,00012.8027,W,15.24,306.68,220410,,*2E
$GPGGA,100029.435,0534.7836,N,00012.8062,W,1,08,1.0,59.1,M,20.4,M,0.0,0000*5D
$GPRMC,100029.435,A,0534.7836,N,00012.8062,W,16.28,305.80,220410,,*28
$GPGGA,100030.435,0534.7864,N,00012.8099,W,1,08,1.0,58.7,M,20.4,M,0.0,0000*51
$GPRMC,100030.435,A,0534.7864,N,00012.8099,W,16.76,306.79,220410,,*2D
$GPGGA,100031.435,0534.7893,N,00012.8137,W,1,08,1.0,58.2,M,20.4,M,0.0,0000*58
$GPRMC,100032.435,A,0534.7923,N,00012.8177,W,18.15,306.54,220410,,*28
$GPGGA,100032.435,0534.7923,N,00012.8177,W,1,07,1.0,57.9,M,20.4,M,0.0,0000*5E
$GPRMC,100032.435,A,0534.7923,N,00012.8177,W,18.15,306.54,220410,,*28
$GPGGA,100033.435,0534.7952,N,00012.8216,W,1,08,1.0,57.7,M,20.4,M,0.0,0000*5C
$GPRMC,100034.435,A,0534.7979,N,00012.8251,W,14.80,309.68,220410,,*26
$GPGGA,100034.435,0534.7979,N,00012.8251,W,1,08,1.0,57.5,M,20.4,M,0.0,0000*53
$GPRMC,100034.435,A,0534.7979,N,00012.8251,W,14.80,309.68,220410,,*26
$GPGGA,100035.435,0534.8004,N,00012.8282,W,1,08,1.0,57.2,M,20.4,M,0.0,0000*57
$GPRMC,100036.435,A,0534.8028,N,00012.8311,W,13.33,308.35,220410,,*25
$GPGGA,100036.435,0534.8028,N,00012.8311,W,1,08,1.0,56.9,M,20.4,M,0.0,0000*5B
$GPRMC,100036.435,A,0534.8028,N,00012.8311,W,13.33,308.35,220410,,*25
$GPGGA,100037.435,0534.8052,N,00012.8341,W,1,08,1.0,56.5,M,20.4,M,0.0,0000*5E
$GPRMC,100037.435,A,0534.8052,N,00012.8341,W,14.32,307.26,220410,,*27
$GPGGA,100038.435,0534.8078,N,00012.8375,W,1,08,1.0,56.1,M,20.4,M,0.0,0000*5A
$GPRMC,100038.435,A,0534.8078,N,00012.8375,W,16.53,307.37,220410,,*22
$GPGGA,100039.435,0534.8108,N,00012.8415,W,1,08,1.0,55.9,M,20.4,M,0.0,0000*57
$GPRMC,100039.435,A,0534.8108,N,00012.8415,W,18.38,306.53,220410,,*24
$GPGGA,100040.435,0534.8139,N,00012.8458,W,1,08,1.0,55.7,M,20.4,M,0.0,0000*5C
$GPRMC,100041.435,A,0534.8171,N,00012.8501,W,18.78,306.00,220410,,*23
$GPGGA,100041.435,0534.8171,N,00012.8501,W,1,08,1.0,55.4,M,20.4,M,0.0,0000*5F
$GPRMC,100042.435,A,0534.8203,N,00012.8543,W,18.21,308.80,220410,,*2A
$GPGGA,100042.435,0534.8203,N,00012.8543,W,1,08,1.0,54.9,M,20.4,M,0.0,0000*50
$GPRMC,100042.435,A,0534.8203,N,00012.8543,W,18.21,308.80,220410,,*2A
$GPGGA,100043.435,0534.8235,N,00012.8583,W,1,08,1.0,54.3,M,20.4,M,0.0,0000*52
$GPRMC,100043.435,A,0534.8235,N,00012.8583,W,18.53,308.41,220410,,*2A
$GPGGA,100044.435,0534.8267,N,00012.8624,W,1,08,1.0,53.7,M,20.4,M,0.0,0000*5F
$GPRMC,100044.435,A,0534.8267,N,00012.8624,W,18.55,306.99,220410,,*29
$GPGGA,100045.435,0534.8297,N,00012.8664,W,1,08,1.0,53.0,M,20.4,M,0.0,0000*52
$GPRMC,100046.435,A,0534.8326,N,00012.8702,W,16.86,307.35,220410,,*2D
$GPGGA,100046.435,0534.8326,N,00012.8702,W,1,08,1.0,52.4,M,20.4,M,0.0,0000*5E
$GPRMC,100046.435,A,0534.8326,N,00012.8702,W,16.86,307.35,220410,,*2D
$GPGGA,100047.434,0534.8354,N,00012.8739,W,1,08,1.0,51.8,M,20.4,M,0.0,0000*5C
$GPRMC,100048.434,A,0534.8382,N,00012.8775,W,16.55,307.99,220410,,*24
$GPGGA,100048.434,0534.8382,N,00012.8775,W,1,08,1.0,51.3,M,20.4,M,0.0,0000*5B
$GPRMC,100048.434,A,0534.8382,N,00012.8775,W,16.55,307.99,220410,,*24
$GPGGA,100049.434,0534.8410,N,00012.8811,W,1,07,1.0,50.8,M,20.4,M,0.0,0000*5E
$GPRMC,100049.434,A,0534.8410,N,00012.8811,W,16.43,308.38,220410,,*27
$GPGGA,100050.434,0534.8438,N,00012.8847,W,1,07,1.0,50.3,M,20.4,M,0.0,0000*54
$GPRMC,100050.434,A,0534.8438,N,00012.8847,W,16.62,307.15,220410,,*25
$GPGGA,100051.434,0534.8465,N,00012.8884,W,1,08,1.0,49.8,M,20.4,M,0.0,0000*5E
$GPRMC,100051.434,A,0534.8465,N,00012.8884,W,16.38,303.66,220410,,*2C
$GPGGA,100052.434,0534.8488,N,00012.8923,W,1,08,1.0,49.3,M,20.4,M,0.0,0000*59
$GPRMC,100052.434,A,0534.8488,N,00012.8923,W,16.15,298.10,220410,,*2D
$GPGGA,100053.434,0534.8506,N,00012.8964,W,1,08,1.0,48.9,M,20.4,M,0.0,0000*57
$GPRMC,100053.434,A,0534.8506,N,00012.8964,W,16.36,290.32,220410,,*21
$GPGGA,100054.434,0534.8518,N,00012.9008,W,1,08,1.0,48.5,M,20.4,M,0.0,0000*51
$GPRMC,100054.434,A,0534.8518,N,00012.9008,W,16.33,282.12,220410,,*2F
$GPGGA,100055.434,0534.8522,N,00012.9053,W,1,08,1.0,48.1,M,20.4,M,0.0,0000*53
$GPRMC,100055.434,A,0534.8522,N,00012.9053,W,16.19,274.82,220410,,*21
$GPGGA,100056.434,0534.8523,N,00012.9098,W,1,07,1.0,47.8,M,20.4,M,0.0,0000*5F
$GPRMC,100057.434,A,0534.8522,N,00012.9142,W,15.44,269.94,220410,,*22
$GPGGA,100057.434,0534.8522,N,00012.9142,W,1,08,1.0,47.4,M,20.4,M,0.0,0000*5A
$GPRMC,100057.434,A,0534.8522,N,00012.9142,W,15.44,269.94,220410,,*22
$GPGGA,100058.434,0534.8520,N,00012.9184,W,1,08,1.0,46.9,M,20.4,M,0.0,0000*51
$GPRMC,100059.434,A,0534.8517,N,00012.9225,W,14.63,267.55,220410,,*2F
$GPGGA,100059.434,0534.8517,N,00012.9225,W,1,08,1.0,46.4,M,20.4,M,0.0,0000*51
$GPRMC,100100.434,A,0534.8515,N,00012.9264,W,13.44,267.86,220410,,*29
$GPGGA,100101.434,0534.8513,N,00012.9298,W,1,08,1.0,45.2,M,20.4,M,0.0,0000*5A
$GPRMC,100101.434,A,0534.8513,N,00012.9298,W,11.00,268.33,220410,,*2E
$GPGGA,100102.434,0534.8511,N,00012.9328,W,1,08,1.0,44.6,M,20.4,M,0.0,0000*54
$GPRMC,100102.434,A,0534.8511,N,00012.9328,W,10.80,268.15,220410,,*28
$GPGGA,100103.434,0534.8509,N,00012.9359,W,1,08,1.0,44.0,M,20.4,M,0.0,0000*5C
$GPRMC,100104.434,A,0534.8507,N,00012.9390,W,11.66,267.58,220410,,*25
$GPGGA,100104.434,0534.8507,N,00012.9390,W,1,08,1.0,43.5,M,20.4,M,0.0,0000*52
$GPRMC,100104.434,A,0534.8507,N,00012.9390,W,11.66,267.58,220410,,*25
$GPGGA,100105.434,0534.8505,N,00012.9423,W,1,08,1.0,43.0,M,20.4,M,0.0,0000*5B
$GPRMC,100106.434,A,0534.8507,N,00012.9454,W,10.65,277.20,220410,,*24
$GPGGA,100106.434,0534.8507,N,00012.9454,W,1,08,1.0,42.6,M,20.4,M,0.0,0000*5D
$GPRMC,100106.434,A,0534.8507,N,00012.9454,W,10.65,277.20,220410,,*24
$GPGGA,100107.434,0534.8513,N,00012.9480,W,1,08,1.0,42.2,M,20.4,M,0.0,0000*54
$GPRMC,100107.434,A,0534.8513,N,00012.9480,W,9.19,288.59,220410,,*14
$GPGGA,100108.434,0534.8524,N,00012.9502,W,1,08,1.0,42.0,M,20.4,M,0.0,0000*56
$GPRMC,100109.433,A,0534.8543,N,00012.9521,W,10.35,321.53,220410,,*2C
$GPGGA,100109.433,0534.8543,N,00012.9521,W,1,08,1.0,41.8,M,20.4,M,0.0,0000*5B
$GPRMC,100109.433,A,0534.8543,N,00012.9521,W,10.35,321.53,220410,,*2C
$GPGGA,100110.433,0534.8572,N,00012.9534,W,1,08,1.0,41.6,M,20.4,M,0.0,0000*5B
$GPRMC,100110.433,A,0534.8572,N,00012.9534,W,11.97,342.93,220410,,*22
$GPGGA,100111.433,0534.8609,N,00012.9539,W,1,08,1.0,41.3,M,20.4,M,0.0,0000*5D
$GPRMC,100111.433,A,0534.8609,N,00012.9539,W,13.86,356.27,220410,,*29
$GPGGA,100112.433,0534.8651,N,00012.9539,W,1,08,1.0,40.9,M,20.4,M,0.0,0000*58
$GPRMC,100112.433,A,0534.8651,N,00012.9539,W,14.72,358.43,220410,,*27
$GPGGA,100113.433,0534.8694,N,00012.9538,W,1,08,1.0,40.4,M,20.4,M,0.0,0000*5C
$GPRMC,100113.433,A,0534.8694,N,00012.9538,W,14.71,359.44,220410,,*2B
$GPGGA,100114.433,0534.8737,N,00012.9536,W,1,07,1.0,39.9,M,20.4,M,0.0,0000*51
$GPRMC,100114.433,A,0534.8737,N,00012.9536,W,14.52,359.52,220410,,*2C
$GPGGA,100115.433,0534.8778,N,00012.9536,W,1,07,1.0,39.5,M,20.4,M,0.0,0000*57
$GPRMC,100115.433,A,0534.8778,N,00012.9536,W,14.43,358.25,220410,,*27
$GPGGA,100116.433,0534.8820,N,00012.9536,W,1,08,1.0,39.2,M,20.4,M,0.0,0000*5E
$GPRMC,100116.433,A,0534.8820,N,00012.9536,W,14.37,358.32,220410,,*23
$GPGGA,100117.433,0534.8860,N,00012.9536,W,1,08,1.0,38.9,M,20.4,M,0.0,0000*51
$GPRMC,100118.433,A,0534.8899,N,00012.9536,W,13.43,358.02,220410,,*28
$GPGGA,100118.433,0534.8899,N,00012.9536,W,1,08,1.0,38.7,M,20.4,M,0.0,0000*56
$GPRMC,100118.433,A,0534.8899,N,00012.9536,W,13.43,358.02,220410,,*28
$GPGGA,100119.433,0534.8937,N,00012.9536,W,1,07,1.0,38.6,M,20.4,M,0.0,0000*5C
$GPRMC,100119.433,A,0534.8937,N,00012.9536,W,13.19,358.33,220410,,*21
$GPGGA,100120.433,0534.8976,N,00012.9536,W,1,07,1.0,38.5,M,20.4,M,0.0,0000*50
$GPRMC,100120.433,A,0534.8976,N,00012.9536,W,14.07,358.26,220410,,*22
$GPGGA,100121.433,0534.9018,N,00012.9537,W,1,07,1.0,38.5,M,20.4,M,0.0,0000*50
$GPRMC,100126.260,A,0534.9226,N,00012.9542,W,14.97,0.60,220410,,*2D
$GPGGA,100126.260,0534.9226,N,00012.9542,W,1,08,1.0,35.9,M,20.4,M,0.0,0000*54
$GPRMC,100127.260,A,0534.9268,N,00012.9539,W,14.35,0.15,220410,,*20
$GPGGA,100127.260,0534.9268,N,00012.9539,W,1,08,1.0,36.8,M,20.4,M,0.0,0000*51
$GPRMC,100128.260,A,0534.9307,N,00012.9538,W,13.74,0.82,220410,,*2A
$GPGGA,100128.260,0534.9307,N,00012.9538,W,1,08,1.0,37.1,M,20.4,M,0.0,0000*5F
$GPRMC,100129.260,A,0534.9345,N,00012.9538,W,13.27,359.88,220410,,*2E
$GPGGA,100129.260,0534.9345,N,00012.9538,W,1,08,1.0,37.2,M,20.4,M,0.0,0000*5B
$GPRMC,100130.260,A,0534.9381,N,00012.9539,W,12.48,358.80,220410,,*2E
$GPGGA,100130.260,0534.9381,N,00012.9539,W,1,08,1.0,37.2,M,20.4,M,0.0,0000*5A
$GPRMC,100131.260,A,0534.9416,N,00012.9539,W,12.30,358.76,220410,,*20
$GPGGA,100131.260,0534.9416,N,00012.9539,W,1,08,1.0,37.2,M,20.4,M,0.0,0000*52
$GPRMC,100132.260,A,0534.9451,N,00012.9540,W,12.62,358.21,220410,,*2B
$GPGGA,100132.260,0534.9451,N,00012.9540,W,1,08,1.0,37.2,M,20.4,M,0.0,0000*5C
$GPRMC,100133.260,A,0534.9486,N,00012.9541,W,12.86,358.20,220410,,*2A
$GPGGA,100133.260,0534.9486,N,00012.9541,W,1,08,1.0,37.4,M,20.4,M,0.0,0000*50
$GPRMC,100134.260,A,0534.9522,N,00012.9542,W,12.70,358.71,220410,,*2C
$GPGGA,100134.260,0534.9522,N,00012.9542,W,1,08,1.0,37.7,M,20.4,M,0.0,0000*58
$GPRMC,100135.260,A,0534.9557,N,00012.9543,W,12.31,359.00,220410,,*2C
$GPGGA,100135.260,0534.9557,N,00012.9543,W,1,07,1.0,37.8,M,20.4,M,0.0,0000*5A
$GPRMC,100136.260,A,0534.9590,N,00012.9544,W,11.69,358.59,220410,,*20
$GPGGA,100136.260,0534.9590,N,00012.9544,W,1,07,1.0,37.9,M,20.4,M,0.0,0000*54
$GPRMC,100137.260,A,0534.9621,N,00012.9545,W,11.16,358.25,220410,,*2A
$GPGGA,100137.260,0534.9621,N,00012.9545,W,1,08,1.0,37.9,M,20.4,M,0.0,0000*52
$GPRMC,100138.260,A,0534.9652,N,00012.9546,W,10.97,357.90,220410,,*2B
$GPGGA,100138.260,0534.9652,N,00012.9546,W,1,08,1.0,38.0,M,20.4,M,0.0,0000*5C
$GPRMC,100139.260,A,0534.9681,N,00012.9546,W,10.69,359.65,220410,,*21
$GPGGA,100139.260,0534.9681,N,00012.9546,W,1,08,1.0,38.1,M,20.4,M,0.0,0000*52
$GPRMC,100140.260,A,0534.9711,N,00012.9546,W,10.69,0.72,220410,,*2E
$GPGGA,100140.260,0534.9711,N,00012.9546,W,1,08,1.0,38.2,M,20.4,M,0.0,0000*57
$GPRMC,100141.259,A,0534.9740,N,00012.9546,W,10.57,0.57,220410,,*2B
$GPGGA,100141.259,0534.9740,N,00012.9546,W,1,08,1.0,38.2,M,20.4,M,0.0,0000*58
$GPRMC,100142.259,A,0534.9770,N,00012.9546,W,10.53,359.05,220410,,*27
$GPGGA,100142.259,0534.9770,N,00012.9546,W,1,08,1.0,38.2,M,20.4,M,0.0,0000*58
$GPRMC,100143.259,A,0534.9799,N,00012.9547,W,10.89,354.91,220410,,*27
$GPGGA,100143.259,0534.9799,N,00012.9547,W,1,08,1.0,38.3,M,20.4,M,0.0,0000*5E
$GPRMC,100144.259,A,0534.9830,N,00012.9550,W,11.30,353.59,220410,,*2A
$GPGGA,100144.259,0534.9830,N,00012.9550,W,1,08,1.0,38.4,M,20.4,M,0.0,0000*54
$GPRMC,100145.259,A,0534.9862,N,00012.9554,W,11.78,356.23,220410,,*2C
$GPGGA,100145.259,0534.9862,N,00012.9554,W,1,08,1.0,38.4,M,20.4,M,0.0,0000*56
$GPRMC,100146.259,A,0534.9895,N,00012.9555,W,12.12,358.77,220410,,*26
$GPGGA,100146.259,0534.9895,N,00012.9555,W,1,08,1.0,38.5,M,20.4,M,0.0,0000*5D
$GPRMC,100147.259,A,0534.9929,N,00012.9555,W,12.43,0.19,220410,,*23
$GPGGA,100147.259,0534.9929,N,00012.9555,W,1,08,1.0,38.5,M,20.4,M,0.0,0000*5A
$GPRMC,100148.259,A,0534.9964,N,00012.9555,W,12.59,0.58,220410,,*2B
$GPGGA,100148.259,0534.9964,N,00012.9555,W,1,08,1.0,38.5,M,20.4,M,0.0,0000*5C
$GPRMC,100149.259,A,0535.0000,N,00012.9555,W,12.65,0.94,220410,,*26
$GPGGA,100149.259,0535.0000,N,00012.9555,W,1,08,1.0,38.5,M,20.4,M,0.0,0000*5E
$GPRMC,100150.259,A,0535.0036,N,00012.9554,W,13.16,0.22,220410,,*22
$GPGGA,100150.259,0535.0036,N,00012.9554,W,1,08,1.0,38.5,M,20.4,M,0.0,0000*52
$GPRMC,100151.259,A,0535.0074,N,00012.9554,W,13.77,359.38,220410,,*26
$GPGGA,100151.259,0535.0074,N,00012.9554,W,1,08,1.0,38.5,M,20.4,M,0.0,0000*55
$GPRMC,100152.259,A,0535.0112,N,00012.9555,W,13.67,358.46,220410,,*2C
$GPGGA,100152.259,0535.0112,N,00012.9555,W,1,08,1.0,38.6,M,20.4,M,0.0,0000*55
$GPRMC,100153.259,A,0535.0151,N,00012.9556,W,13.55,357.91,220410,,*2D
$GPGGA,100153.259,0535.0151,N,00012.9556,W,1,08,1.0,38.8,M,20.4,M,0.0,0000*5E
$GPRMC,100154.259,A,0535.0189,N,00012.9556,W,13.44,0.38,220410,,*2D
$GPGGA,100154.259,0535.0189,N,00012.9556,W,1,08,1.0,38.9,M,20.4,M,0.0,0000*5D
$GPRMC,100155.259,A,0535.0226,N,00012.9555,W,12.87,359.48,220410,,*2F
$GPGGA,100155.259,0535.0226,N,00012.9555,W,1,08,1.0,39.1,M,20.4,M,0.0,0000*50
$GPRMC,100156.259,A,0535.0262,N,00012.9556,W,12.31,357.62,220410,,*24
$GPGGA,100156.259,0535.0262,N,00012.9556,W,1,08,1.0,39.3,M,20.4,M,0.0,0000*52
$GPRMC,100157.259,A,0535.0295,N,00012.9557,W,12.08,357.49,220410,,*2F
$GPGGA,100157.259,0535.0295,N,00012.9557,W,1,08,1.0,39.6,M,20.4,M,0.0,0000*5F
$GPRMC,100158.259,A,0535.0329,N,00012.9558,W,12.40,358.16,220410,,*20
$GPGGA,100158.259,0535.0329,N,00012.9558,W,1,08,1.0,39.8,M,20.4,M,0.0,0000*57
$GPRMC,100159.259,A,0535.0364,N,00012.9558,W,12.91,359.49,220410,,*2F
$GPGGA,100159.259,0535.0364,N,00012.9558,W,1,08,1.0,40.2,M,20.4,M,0.0,0000*5B
$GPRMC,100200.259,A,0535.0401,N,00012.9558,W,13.53,0.85,220410,,*24
$GPGGA,100200.259,0535.0401,N,00012.9558,W,1,08,1.0,40.4,M,20.4,M,0.0,0000*56
$GPRMC,100201.259,A,0535.0440,N,00012.9557,W,14.20,0.80,220410,,*29
$GPGGA,100201.259,0535.0440,N,00012.9557,W,1,08,1.0,40.8,M,20.4,M,0.0,0000*51
$GPRMC,100202.259,A,0535.0480,N,00012.9557,W,14.86,0.16,220410,,*25
$GPGGA,100202.259,0535.0480,N,00012.9557,W,1,08,1.0,41.2,M,20.4,M,0.0,0000*55
$GPRMC,100203.259,A,0535.0522,N,00012.9557,W,15.52,358.62,220410,,*28
$GPGGA,100203.259,0535.0522,N,00012.9557,W,1,08,1.0,41.6,M,20.4,M,0.0,0000*59
$GPRMC,100204.258,A,0535.0566,N,00012.9559,W,15.29,357.42,220410,,*21
$GPGGA,100204.258,0535.0566,N,00012.9559,W,1,08,1.0,42.0,M,20.4,M,0.0,0000*54
$GPRMC,100205.258,A,0535.0607,N,00012.9561,W,14.26,357.58,220410,,*2A
$GPGGA,100205.258,0535.0607,N,00012.9561,W,1,08,1.0,42.3,M,20.4,M,0.0,0000*59
$GPRMC,100206.258,A,0535.0645,N,00012.9563,W,13.11,355.68,220410,,*2F
$GPGGA,100206.258,0535.0645,N,00012.9563,W,1,08,1.0,42.6,M,20.4,M,0.0,0000*5B
$GPRMC,100207.258,A,0535.0680,N,00012.9567,W,11.85,353.26,220410,,*20
$GPGGA,100207.258,0535.0680,N,00012.9567,W,1,08,1.0,42.8,M,20.4,M,0.0,0000*59
$GPRMC,100208.258,A,0535.0710,N,00012.9572,W,10.58,347.85,220410,,*2E
$GPGGA,100208.258,0535.0710,N,00012.9572,W,1,08,1.0,43.1,M,20.4,M,0.0,0000*52
$GPRMC,100209.258,A,0535.0736,N,00012.9582,W,10.21,333.01,220410,,*25
$GPGGA,100209.258,0535.0736,N,00012.9582,W,1,08,1.0,43.4,M,20.4,M,0.0,0000*5D
$GPRMC,100210.258,A,0535.0757,N,00012.9601,W,10.65,309.34,220410,,*2D
$GPGGA,100210.258,0535.0757,N,00012.9601,W,1,08,1.0,43.8,M,20.4,M,0.0,0000*56
$GPRMC,100211.258,A,0535.0768,N,00012.9630,W,11.78,281.24,220410,,*2F
$GPGGA,100211.258,0535.0768,N,00012.9630,W,1,08,1.0,44.1,M,20.4,M,0.0,0000*57
$GPRMC,100212.258,A,0535.0769,N,00012.9667,W,13.71,266.49,220410,,*26
$GPGGA,100212.258,0535.0769,N,00012.9667,W,1,08,1.0,44.4,M,20.4,M,0.0,0000*52
$GPRMC,100213.258,A,0535.0764,N,00012.9709,W,15.62,265.00,220410,,*29
$GPGGA,100213.258,0535.0764,N,00012.9709,W,1,08,1.0,44.4,M,20.4,M,0.0,0000*57
$GPRMC,100214.258,A,0535.0759,N,00012.9756,W,16.70,268.25,220410,,*20
$GPGGA,100214.258,0535.0759,N,00012.9756,W,1,08,1.0,44.2,M,20.4,M,0.0,0000*52
$GPRMC,100215.258,A,0535.0757,N,00012.9805,W,16.71,270.62,220410,,*2D
$GPGGA,100215.258,0535.0757,N,00012.9805,W,1,08,1.0,43.8,M,20.4,M,0.0,0000*59
$GPRMC,100216.258,A,0535.0757,N,00012.9852,W,15.28,271.94,220410,,*2B
$GPGGA,100216.258,0535.0757,N,00012.9852,W,1,08,1.0,43.4,M,20.4,M,0.0,0000*54
$GPRMC,100217.258,A,0535.0758,N,00012.9894,W,14.00,272.17,220410,,*2C
$GPGGA,100217.258,0535.0758,N,00012.9894,W,1,08,1.0,43.1,M,20.4,M,0.0,0000*55
$GPRMC,100218.258,A,0535.0758,N,00012.9934,W,13.76,271.68,220410,,*25
$GPGGA,100218.258,0535.0758,N,00012.9934,W,1,08,1.0,42.8,M,20.4,M,0.0,0000*59
$GPRMC,100219.258,A,0535.0758,N,00012.9972,W,12.19,271.37,220410,,*24
$GPGGA,100219.258,0535.0758,N,00012.9972,W,1,08,1.0,42.5,M,20.4,M,0.0,0000*57
$GPRMC,100220.258,A,0535.0758,N,00013.0002,W,8.97,270.98,220410,,*11
$GPGGA,100220.258,0535.0758,N,00013.0002,W,1,08,1.0,42.2,M,20.4,M,0.0,0000*5C
$GPRMC,100221.258,A,0535.0757,N,00013.0023,W,5.86,271.46,220410,,*13
$GPGGA,100221.258,0535.0757,N,00013.0023,W,1,08,1.0,42.0,M,20.4,M,0.0,0000*53
$GPRMC,100222.258,A,0535.0757,N,00013.0038,W,4.55,271.67,220410,,*16
$GPGGA,100222.258,0535.0757,N,00013.0038,W,1,08,1.0,41.9,M,20.4,M,0.0,0000*50
$GPRMC,100223.258,A,0535.0757,N,00013.0050,W,3.97,271.71,220410,,*17
$GPGGA,100223.258,0535.0757,N,00013.0050,W,1,08,1.0,41.8,M,20.4,M,0.0,0000*5E
$GPRMC,100224.258,A,0535.0757,N,00013.0058,W,2.41,272.72,220410,,*12
$GPGGA,100224.258,0535.0757,N,00013.0058,W,1,08,1.0,41.8,M,20.4,M,0.0,0000*51
$GPRMC,100225.258,A,0535.0757,N,00013.0063,W,1.03,273.78,220410,,*15
$GPGGA,100225.258,0535.0757,N,00013.0063,W,1,08,1.0,41.6,M,20.4,M,0.0,0000*56
$GPRMC,100226.257,A,0535.0757,N,00013.0064,W,0.41,275.55,220410,,*10
$GPGGA,100226.257,0535.0757,N,00013.0064,W,1,08,1.0,41.2,M,20.4,M,0.0,0000*59
$GPRMC,100227.257,A,0535.0757,N,00013.0064,W,0.10,348.40,220410,,*1E
$GPGGA,100227.257,0535.0757,N,00013.0064,W,1,08,1.0,40.7,M,20.4,M,0.0,0000*5C
$GPRMC,100228.257,A,0535.0758,N,00013.0064,W,0.03,34.93,220410,,*2A
$GPGGA,100228.257,0535.0758,N,00013.0064,W,1,08,1.0,39.9,M,20.4,M,0.0,0000*5C
$GPRMC,100229.257,A,0535.0758,N,00013.0063,W,0.02,67.63,220410,,*24
$GPGGA,100229.257,0535.0758,N,00013.0063,W,1,08,1.0,39.1,M,20.4,M,0.0,0000*52
$GPRMC,100230.257,A,0535.0759,N,00013.0063,W,0.02,328.60,220410,,*16
$GPGGA,100230.257,0535.0759,N,00013.0063,W,1,08,1.0,38.4,M,20.4,M,0.0,0000*5F
$GPRMC,100231.257,A,0535.0759,N,00013.0064,W,0.04,11.76,220410,,*28
$GPGGA,100231.257,0535.0759,N,00013.0064,W,1,08,1.0,37.8,M,20.4,M,0.0,0000*5A
$GPRMC,100232.257,A,0535.0760,N,00013.0064,W,0.03,326.17,220410,,*16
$GPGGA,100232.257,0535.0760,N,00013.0064,W,1,08,1.0,37.2,M,20.4,M,0.0,0000*59
$GPRMC,100233.257,A,0535.0760,N,00013.0064,W,0.02,7.93,220410,,*1A
$GPGGA,100233.257,0535.0760,N,00013.0064,W,1,08,1.0,36.7,M,20.4,M,0.0,0000*5C
$GPRMC,100234.257,A,0535.0760,N,00013.0063,W,0.03,15.47,220410,,*21
$GPGGA,100234.257,0535.0760,N,00013.0063,W,1,08,1.0,36.1,M,20.4,M,0.0,0000*5A
$GPRMC,100235.257,A,0535.0761,N,00013.0063,W,0.04,31.47,220410,,*20
$GPGGA,100235.257,0535.0761,N,00013.0063,W,1,08,1.0,35.5,M,20.4,M,0.0,0000*5D
$GPRMC,100236.257,A,0535.0761,N,00013.0062,W,0.05,317.62,220410,,*13
$GPGGA,100236.257,0535.0761,N,00013.0062,W,1,08,1.0,34.9,M,20.4,M,0.0,0000*52
$GPRMC,100237.257,A,0535.0762,N,00013.0061,W,0.04,26.26,220410,,*22
$GPGGA,100237.257,0535.0762,N,00013.0061,W,1,08,1.0,34.3,M,20.4,M,0.0,0000*59
$GPRMC,100238.257,A,0535.0762,N,00013.0060,W,0.04,18.22,220410,,*25
$GPGGA,100238.257,0535.0762,N,00013.0060,W,1,08,1.0,33.8,M,20.4,M,0.0,0000*5B
$GPRMC,100239.257,A,0535.0763,N,00013.0058,W,0.07,13.74,220410,,*25
$GPGGA,100239.257,0535.0763,N,00013.0058,W,1,08,1.0,33.2,M,20.4,M,0.0,0000*5A
$GPRMC,100240.257,A,0535.0763,N,00013.0057,W,0.05,259.70,220410,,*1E
$GPGGA,100240.257,0535.0763,N,00013.0057,W,1,08,1.0,32.7,M,20.4,M,0.0,0000*5F
$GPRMC,100241.257,A,0535.0764,N,00013.0056,W,0.04,13.02,220410,,*21
$GPGGA,100241.257,0535.0764,N,00013.0056,W,1,08,1.0,32.3,M,20.4,M,0.0,0000*5C
$GPRMC,100242.257,A,0535.0764,N,00013.0055,W,0.06,358.57,220410,,*1F
$GPGGA,100242.257,0535.0764,N,00013.0055,W,1,08,1.0,32.1,M,20.4,M,0.0,0000*5E
$GPRMC,100243.257,A,0535.0764,N,00013.0053,W,0.04,14.20,220410,,*21
$GPGGA,100243.257,0535.0764,N,00013.0053,W,1,08,1.0,31.8,M,20.4,M,0.0,0000*53
$GPRMC,100244.257,A,0535.0764,N,00013.0052,W,0.05,17.31,220410,,*25
$GPGGA,100244.257,0535.0764,N,00013.0052,W,1,08,1.0,31.7,M,20.4,M,0.0,0000*5A
$GPRMC,100245.257,A,0535.0764,N,00013.0051,W,0.02,326.07,220410,,*14
$GPGGA,100245.257,0535.0764,N,00013.0051,W,1,08,1.0,31.8,M,20.4,M,0.0,0000*57
$GPRMC,100246.257,A,0535.0764,N,00013.0050,W,0.02,318.31,220410,,*1E
$GPGGA,100246.257,0535.0764,N,00013.0050,W,1,08,1.0,32.0,M,20.4,M,0.0,0000*5E
$GPRMC,100247.257,A,0535.0763,N,00013.0050,W,0.04,28.68,220410,,*22
$GPGGA,100247.257,0535.0763,N,00013.0050,W,1,08,1.0,32.3,M,20.4,M,0.0,0000*5B
$GPRMC,100248.257,A,0535.0762,N,00013.0049,W,0.04,11.84,220410,,*2C
$GPGGA,100248.257,0535.0762,N,00013.0049,W,1,08,1.0,32.7,M,20.4,M,0.0,0000*59
$GPRMC,100249.256,A,0535.0760,N,00013.0048,W,0.03,9.03,220410,,*1E
$GPGGA,100249.256,0535.0760,N,00013.0048,W,1,08,1.0,33.2,M,20.4,M,0.0,0000*5E
$GPRMC,100250.256,A,0535.0759,N,00013.0047,W,0.04,21.43,220410,,*2A
$GPGGA,100250.256,0535.0759,N,00013.0047,W,1,08,1.0,33.8,M,20.4,M,0.0,0000*59
$GPRMC,100251.256,A,0535.0757,N,00013.0047,W,0.05,352.02,220410,,*16
$GPGGA,100251.256,0535.0757,N,00013.0047,W,1,08,1.0,34.4,M,20.4,M,0.0,0000*5D
$GPRMC,100252.256,A,0535.0755,N,00013.0048,W,0.02,321.23,220410,,*18
$GPGGA,100252.256,0535.0755,N,00013.0048,W,1,09,0.8,35.2,M,20.4,M,0.0,0000*5C
$GPRMC,100253.256,A,0535.0753,N,00013.0048,W,0.02,341.08,220410,,*10
$GPGGA,100253.256,0535.0753,N,00013.0048,W,1,09,0.8,35.9,M,20.4,M,0.0,0000*50
$GPRMC,100254.256,A,0535.0752,N,00013.0048,W,0.03,13.76,220410,,*2A
$GPGGA,100254.256,0535.0752,N,00013.0048,W,1,09,0.8,36.6,M,20.4,M,0.0,0000*5A
$GPRMC,100255.256,A,0535.0751,N,00013.0049,W,0.03,345.99,220410,,*18
$GPGGA,100255.256,0535.0751,N,00013.0049,W,1,09,0.8,37.2,M,20.4,M,0.0,0000*5C
$GPRMC,100256.256,A,0535.0750,N,00013.0049,W,0.04,312.33,220410,,*1F
$GPGGA,100256.256,0535.0750,N,00013.0049,W,1,09,0.8,37.9,M,20.4,M,0.0,0000*55
$GPRMC,100257.256,A,0535.0750,N,00013.0050,W,0.02,12.13,220410,,*21
$GPGGA,100257.256,0535.0750,N,00013.0050,W,1,09,0.8,38.4,M,20.4,M,0.0,0000*5E
$GPRMC,100258.256,A,0535.0750,N,00013.0051,W,0.02,343.84,220410,,*16
$GPGGA,100258.256,0535.0750,N,00013.0051,W,1,09,0.8,38.8,M,20.4,M,0.0,0000*5C
$GPRMC,100259.256,A,0535.0750,N,00013.0052,W,0.02,8.26,220410,,*10
$GPGGA,100259.256,0535.0750,N,00013.0052,W,1,09,0.8,39.0,M,20.4,M,0.0,0000*57
$GPRMC,100300.256,A,0535.0750,N,00013.0053,W,0.03,333.17,220410,,*14
$GPGGA,100300.256,0535.0750,N,00013.0053,W,1,09,0.8,39.0,M,20.4,M,0.0,0000*5B
$GPRMC,100301.256,A,0535.0750,N,00013.0054,W,0.05,319.52,220410,,*1D
$GPGGA,100301.256,0535.0750,N,00013.0054,W,1,09,0.8,39.1,M,20.4,M,0.0,0000*5C
$GPRMC,100302.256,A,0535.0750,N,00013.0055,W,0.02,2.55,220410,,*16
$GPGGA,100302.256,0535.0750,N,00013.0055,W,1,09,0.8,39.3,M,20.4,M,0.0,0000*5C
$GPRMC,100303.256,A,0535.0750,N,00013.0055,W,0.03,33.21,220410,,*27
$GPGGA,100303.256,0535.0750,N,00013.0055,W,1,09,0.8,39.5,M,20.4,M,0.0,0000*5B
$GPRMC,100304.256,A,0535.0750,N,00013.0055,W,0.03,336.86,220410,,*1B
$GPGGA,100304.256,0535.0750,N,00013.0055,W,1,09,0.8,39.5,M,20.4,M,0.0,0000*5C
$GPRMC,100305.256,A,0535.0749,N,00013.0055,W,0.04,282.41,220410,,*10
$GPGGA,100305.256,0535.0749,N,00013.0055,W,1,09,0.8,39.5,M,20.4,M,0.0,0000*55
$GPRMC,100306.256,A,0535.0749,N,00013.0055,W,0.02,316.87,220410,,*13
$GPGGA,100306.256,0535.0749,N,00013.0055,W,1,09,0.8,39.5,M,20.4,M,0.0,0000*56
$GPRMC,100307.256,A,0535.0749,N,00013.0056,W,0.02,30.59,220410,,*25
$GPGGA,100307.256,0535.0749,N,00013.0056,W,1,09,0.8,39.6,M,20.4,M,0.0,0000*57
$GPRMC,100308.256,A,0535.0749,N,00013.0056,W,0.02,346.26,220410,,*10
$GPGGA,100308.256,0535.0749,N,00013.0056,W,1,09,0.8,39.7,M,20.4,M,0.0,0000*59
$GPRMC,100309.256,A,0535.0748,N,00013.0056,W,0.02,14.51,220410,,*24
$GPGGA,100309.256,0535.0748,N,00013.0056,W,1,09,0.8,39.9,M,20.4,M,0.0,0000*57
$GPRMC,100310.256,A,0535.0748,N,00013.0057,W,0.13,274.89,220410,,*1C
$GPGGA,100310.256,0535.0748,N,00013.0057,W,1,09,0.8,39.8,M,20.4,M,0.0,0000*5F
$GPRMC,100311.256,A,0535.0748,N,00013.0059,W,0.29,278.09,220410,,*1E
$GPGGA,100311.256,0535.0748,N,00013.0059,W,1,09,0.8,39.8,M,20.4,M,0.0,0000*50
$GPRMC,100312.256,A,0535.0749,N,00013.0060,W,0.02,350.28,220410,,*17
$GPGGA,100312.256,0535.0749,N,00013.0060,W,1,09,0.8,39.9,M,20.4,M,0.0,0000*59
$GPRMC,100313.255,A,0535.0749,N,00013.0061,W,0.00,355.19,220410,,*11
$GPGGA,100313.255,0535.0749,N,00013.0061,W,1,09,0.8,40.1,M,20.4,M,0.0,0000*5C
$GPRMC,100314.255,A,0535.0748,N,00013.0061,W,0.04,41.89,220410,,*2C
$GPGGA,100314.255,0535.0748,N,00013.0061,W,1,09,0.8,40.2,M,20.4,M,0.0,0000*59
$GPRMC,100315.255,A,0535.0748,N,00013.0061,W,0.02,1.11,220410,,*1E
$GPGGA,100315.255,0535.0748,N,00013.0061,W,1,09,0.8,40.4,M,20.4,M,0.0,0000*5E
$GPRMC,100316.255,A,0535.0748,N,00013.0061,W,0.06,299.78,220410,,*15
$GPGGA,100316.255,0535.0748,N,00013.0061,W,1,09,0.8,40.4,M,20.4,M,0.0,0000*5D
$GPRMC,100317.255,A,0535.0748,N,00013.0061,W,0.02,19.79,220410,,*2B
$GPGGA,100317.255,0535.0748,N,00013.0061,W,1,09,0.8,40.5,M,20.4,M,0.0,0000*5D
$GPRMC,100318.255,A,0535.0749,N,00013.0060,W,0.03,283.56,220410,,*19
$GPGGA,100318.255,0535.0749,N,00013.0060,W,1,09,0.8,40.5,M,20.4,M,0.0,0000*52
$GPRMC,100319.255,A,0535.0749,N,00013.0059,W,0.01,348.16,220410,,*12
$GPGGA,100319.255,0535.0749,N,00013.0059,W,1,09,0.8,40.6,M,20.4,M,0.0,0000*5A
$GPRMC,100320.255,A,0535.0750,N,00013.0058,W,0.01,358.24,220410,,*11
$GPGGA,100320.255,0535.0750,N,00013.0058,W,1,09,0.8,40.6,M,20.4,M,0.0,0000*59
$GPRMC,100321.255,A,0535.0750,N,00013.0057,W,0.03,359.44,220410,,*1A
$GPGGA,100321.255,0535.0750,N,00013.0057,W,1,09,0.8,40.5,M,20.4,M,0.0,0000*54
$GPRMC,100322.255,A,0535.0751,N,00013.0056,W,0.04,31.77,220410,,*23
$GPGGA,100322.255,0535.0751,N,00013.0056,W,1,09,0.8,40.3,M,20.4,M,0.0,0000*51
$GPRMC,100323.255,A,0535.0753,N,00013.0054,W,0.04,52.02,220410,,*25
$GPGGA,100323.255,0535.0753,N,00013.0054,W,1,09,0.8,39.9,M,20.4,M,0.0,0000*54
$GPRMC,100324.255,A,0535.0754,N,00013.0053,W,0.04,306.65,220410,,*11
$GPGGA,100324.255,0535.0754,N,00013.0053,W,1,09,0.8,39.5,M,20.4,M,0.0,0000*5F
$GPRMC,100325.255,A,0535.0755,N,00013.0052,W,0.04,313.54,220410,,*16
$GPGGA,100325.255,0535.0755,N,00013.0052,W,1,09,0.8,39.2,M,20.4,M,0.0,0000*59
$GPRMC,100326.255,A,0535.0756,N,00013.0052,W,0.24,277.42,220410,,*10
$GPGGA,100326.255,0535.0756,N,00013.0052,W,1,09,0.8,38.8,M,20.4,M,0.0,0000*52
$GPRMC,100327.255,A,0535.0756,N,00013.0053,W,0.47,272.06,220410,,*10
$GPGGA,100327.255,0535.0756,N,00013.0053,W,1,09,0.8,38.6,M,20.4,M,0.0,0000*5C
$GPRMC,100328.255,A,0535.0757,N,00013.0054,W,0.14,280.22,220410,,*14
$GPGGA,100328.255,0535.0757,N,00013.0054,W,1,09,0.8,38.5,M,20.4,M,0.0,0000*56
$GPRMC,100329.255,A,0535.0757,N,00013.0055,W,0.07,310.23,220410,,*1F
$GPGGA,100329.255,0535.0757,N,00013.0055,W,1,09,0.8,38.4,M,20.4,M,0.0,0000*57
$GPRMC,100330.255,A,0535.0758,N,00013.0056,W,0.03,257.43,220410,,*1B
$GPGGA,100330.255,0535.0758,N,00013.0056,W,1,09,0.8,38.2,M,20.4,M,0.0,0000*55
$GPRMC,100331.255,A,0535.0759,N,00013.0056,W,0.02,353.67,220410,,*19
$GPGGA,100331.255,0535.0759,N,00013.0056,W,1,09,0.8,37.9,M,20.4,M,0.0,0000*51
$GPRMC,100332.255,A,0535.0760,N,00013.0058,W,0.44,274.10,220410,,*18
$GPGGA,100332.255,0535.0760,N,00013.0058,W,1,09,0.8,37.6,M,20.4,M,0.0,0000*59
$GPRMC,100333.255,A,0535.0760,N,00013.0063,W,2.42,272.73,220410,,*16
$GPGGA,100333.255,0535.0760,N,00013.0063,W,1,09,0.8,37.5,M,20.4,M,0.0,0000*53
$GPRMC,100334.255,A,0535.0760,N,00013.0075,W,4.97,272.67,220410,,*1D
$GPGGA,100334.255,0535.0760,N,00013.0075,W,1,09,0.8,37.7,M,20.4,M,0.0,0000*51
$GPRMC,100335.255,A,0535.0761,N,00013.0093,W,7.90,274.17,220410,,*10
$GPGGA,100335.255,0535.0761,N,00013.0093,W,1,09,0.8,37.8,M,20.4,M,0.0,0000*56
$GPRMC,100336.254,A,0535.0764,N,00013.0120,W,10.35,280.09,220410,,*23
$GPGGA,100336.254,0535.0764,N,00013.0120,W,1,09,0.8,38.0,M,20.4,M,0.0,0000*5F
$GPRMC,100337.254,A,0535.0774,N,00013.0151,W,12.60,293.77,220410,,*2C
$GPGGA,100337.254,0535.0774,N,00013.0151,W,1,09,0.8,38.3,M,20.4,M,0.0,0000*5A
$GPRMC,100338.254,A,0535.0795,N,00013.0183,W,14.19,312.26,220410,,*27
$GPGGA,100338.254,0535.0795,N,00013.0183,W,1,09,0.8,38.4,M,20.4,M,0.0,0000*52
$GPRMC,100339.254,A,0535.0828,N,00013.0209,W,15.82,329.11,220410,,*21
$GPGGA,100339.254,0535.0828,N,00013.0209,W,1,09,0.8,38.5,M,20.4,M,0.0,0000*5A
$GPRMC,100340.254,A,0535.0871,N,00013.0229,W,17.26,338.92,220410,,*26
$GPGGA,100340.254,0535.0871,N,00013.0229,W,1,09,0.8,38.5,M,20.4,M,0.0,0000*5A
$GPRMC,100341.254,A,0535.0920,N,00013.0245,W,18.50,344.47,220410,,*25
$GPGGA,100341.254,0535.0920,N,00013.0245,W,1,09,0.8,38.4,M,20.4,M,0.0,0000*55
$GPRMC,100342.254,A,0535.0973,N,00013.0258,W,19.61,346.69,220410,,*21
$GPGGA,100342.254,0535.0973,N,00013.0258,W,1,09,0.8,38.2,M,20.4,M,0.0,0000*5A
$GPRMC,100343.254,A,0535.1030,N,00013.0271,W,20.79,346.51,220410,,*2C
$GPGGA,100343.254,0535.1030,N,00013.0271,W,1,09,0.8,38.1,M,20.4,M,0.0,0000*5C
$GPRMC,100344.254,A,0535.1091,N,00013.0284,W,22.22,345.87,220410,,*2E
$GPGGA,100344.254,0535.1091,N,00013.0284,W,1,09,0.8,37.8,M,20.4,M,0.0,0000*5C
$GPRMC,100345.254,A,0535.1155,N,00013.0299,W,23.44,346.09,220410,,*2E
$GPGGA,100345.254,0535.1155,N,00013.0299,W,1,09,0.8,37.5,M,20.4,M,0.0,0000*55
$GPRMC,100346.254,A,0535.1222,N,00013.0314,W,24.28,346.65,220410,,*2D
$GPGGA,100346.254,0535.1222,N,00013.0314,W,1,09,0.8,37.1,M,20.4,M,0.0,0000*55
$GPRMC,100347.254,A,0535.1291,N,00013.0330,W,24.92,347.10,220410,,*20
$GPGGA,100347.254,0535.1291,N,00013.0330,W,1,09,0.8,36.7,M,20.4,M,0.0,0000*5D
$GPRMC,100348.254,A,0535.1361,N,00013.0345,W,25.63,347.70,220410,,*2A
$GPGGA,100348.254,0535.1361,N,00013.0345,W,1,09,0.8,36.4,M,20.4,M,0.0,0000*5D
$GPRMC,100349.254,A,0535.1433,N,00013.0359,W,26.10,348.34,220410,,*2E
$GPGGA,100349.254,0535.1433,N,00013.0359,W,1,09,0.8,36.2,M,20.4,M,0.0,0000*57
$GPRMC,100350.254,A,0535.1507,N,00013.0374,W,26.65,348.55,220410,,*2A
$GPGGA,100350.254,0535.1507,N,00013.0374,W,1,09,0.8,36.0,M,20.4,M,0.0,0000*54
$GPRMC,100351.254,A,0535.1582,N,00013.0388,W,27.11,349.32,220410,,*27
$GPGGA,100351.254,0535.1582,N,00013.0388,W,1,09,0.8,36.0,M,20.4,M,0.0,0000*5B
$GPRMC,100352.254,A,0535.1659,N,00013.0401,W,27.74,350.07,220410,,*2A
$GPGGA,100352.254,0535.1659,N,00013.0401,W,1,09,0.8,36.0,M,20.4,M,0.0,0000*5B
$GPRMC,100353.254,A,0535.1737,N,00013.0414,W,28.36,350.77,220410,,*28
$GPGGA,100353.254,0535.1737,N,00013.0414,W,1,09,0.8,36.0,M,20.4,M,0.0,0000*57
$GPRMC,100354.254,A,0535.1818,N,00013.0426,W,29.08,351.57,220410,,*23
$GPGGA,100354.254,0535.1818,N,00013.0426,W,1,09,0.8,36.0,M,20.4,M,0.0,0000*53
$GPRMC,100355.254,A,0535.1900,N,00013.0438,W,29.65,352.54,220410,,*2E
$GPGGA,100355.254,0535.1900,N,00013.0438,W,1,09,0.8,36.2,M,20.4,M,0.0,0000*57
$GPRMC,100356.254,A,0535.1984,N,00013.0448,W,29.97,353.32,220410,,*2A
$GPGGA,100356.254,0535.1984,N,00013.0448,W,1,09,0.8,36.3,M,20.4,M,0.0,0000*5E
$GPRMC,100357.254,A,0535.2066,N,00013.0457,W,28.57,354.14,220410,,*2D
$GPGGA,100357.254,0535.2066,N,00013.0457,W,1,09,0.8,36.5,M,20.4,M,0.0,0000*51
$GPRMC,100358.254,A,0535.2141,N,00013.0464,W,25.48,354.31,220410,,*22
$GPGGA,100358.254,0535.2141,N,00013.0464,W,1,09,0.8,36.7,M,20.4,M,0.0,0000*58
$GPRMC,100359.253,A,0535.2207,N,00013.0471,W,22.22,354.11,220410,,*28
$GPGGA,100359.253,0535.2207,N,00013.0471,W,1,09,0.8,37.0,M,20.4,M,0.0,0000*5D
$GPRMC,100400.253,A,0535.2264,N,00013.0477,W,19.04,353.14,220410,,*2E
$GPGGA,100400.253,0535.2264,N,00013.0477,W,1,09,0.8,37.3,M,20.4,M,0.0,0000*56
$GPRMC,100401.253,A,0535.2311,N,00013.0483,W,16.31,351.90,220410,,*20
$GPGGA,100401.253,0535.2311,N,00013.0483,W,1,09,0.8,37.6,M,20.4,M,0.0,0000*5A
$GPRMC,100402.253,A,0535.2352,N,00013.0489,W,14.45,350.92,220410,,*2C
$GPGGA,100402.253,0535.2352,N,00013.0489,W,1,09,0.8,37.9,M,20.4,M,0.0,0000*5B
$GPRMC,100403.253,A,0535.2386,N,00013.0495,W,11.53,350.33,220410,,*20
$GPGGA,100403.253,0535.2386,N,00013.0495,W,1,09,0.8,38.0,M,20.4,M,0.0,0000*58
$GPRMC,100404.253,A,0535.2411,N,00013.0499,W,8.42,350.32,220410,,*1B
$GPGGA,100404.253,0535.2411,N,00013.0499,W,1,09,0.8,38.1,M,20.4,M,0.0,0000*5B
$GPRMC,100405.253,A,0535.2428,N,00013.0502,W,5.70,350.53,220410,,*18
$GPGGA,100405.253,0535.2428,N,00013.0502,W,1,09,0.8,38.1,M,20.4,M,0.0,0000*53
$GPRMC,100406.253,A,0535.2438,N,00013.0503,W,3.58,349.85,220410,,*14
$GPGGA,100406.253,0535.2438,N,00013.0503,W,1,09,0.8,38.1,M,20.4,M,0.0,0000*50
$GPRMC,100407.253,A,0535.2444,N,00013.0504,W,2.59,349.62,220410,,*10
$GPGGA,100407.253,0535.2444,N,00013.0504,W,1,09,0.8,38.2,M,20.4,M,0.0,0000*5E
$GPRMC,100408.253,A,0535.2449,N,00013.0505,W,3.28,349.41,220410,,*15
$GPGGA,100408.253,0535.2449,N,00013.0505,W,1,09,0.8,38.4,M,20.4,M,0.0,0000*5B
$GPRMC,100409.253,A,0535.2460,N,00013.0507,W,5.90,349.56,220410,,*1E
$GPGGA,100409.253,0535.2460,N,00013.0507,W,1,09,0.8,38.5,M,20.4,M,0.0,0000*52
$GPRMC,100410.253,A,0535.2478,N,00013.0511,W,8.42,349.04,220410,,*1D
$GPGGA,100410.253,0535.2478,N,00013.0511,W,1,09,0.8,38.8,M,20.4,M,0.0,0000*59
$GPRMC,100411.253,A,0535.2503,N,00013.0516,W,10.28,347.72,220410,,*2C
$GPGGA,100411.253,0535.2503,N,00013.0516,W,1,09,0.8,39.0,M,20.4,M,0.0,0000*5B
$GPRMC,100412.253,A,0535.2533,N,00013.0523,W,12.13,346.44,220410,,*24
$GPGGA,100412.253,0535.2533,N,00013.0523,W,1,09,0.8,39.3,M,20.4,M,0.0,0000*5E
$GPRMC,100413.253,A,0535.2568,N,00013.0531,W,13.64,345.54,220410,,*2B
$GPGGA,100413.253,0535.2568,N,00013.0531,W,1,09,0.8,39.7,M,20.4,M,0.0,0000*56
$GPRMC,100414.253,A,0535.2607,N,00013.0541,W,14.57,345.27,220410,,*22
$GPGGA,100414.253,0535.2607,N,00013.0541,W,1,09,0.8,40.2,M,20.4,M,0.0,0000*57
$GPRMC,100415.253,A,0535.2649,N,00013.0552,W,15.41,344.45,220410,,*28
$GPGGA,100415.253,0535.2649,N,00013.0552,W,1,09,0.8,40.7,M,20.4,M,0.0,0000*5B
$GPRMC,100416.253,A,0535.2692,N,00013.0564,W,16.05,343.64,220410,,*2F
$GPGGA,100416.253,0535.2692,N,00013.0564,W,1,09,0.8,41.1,M,20.4,M,0.0,0000*5C
$GPRMC,100417.253,A,0535.2736,N,00013.0578,W,16.38,342.62,220410,,*25
$GPGGA,100417.253,0535.2736,N,00013.0578,W,1,09,0.8,41.6,M,20.4,M,0.0,0000*58
$GPRMC,100418.253,A,0535.2781,N,00013.0593,W,16.86,341.51,220410,,*25
$GPGGA,100418.253,0535.2781,N,00013.0593,W,1,09,0.8,42.1,M,20.4,M,0.0,0000*5A
$GPRMC,100419.253,A,0535.2827,N,00013.0610,W,17.41,339.79,220410,,*20
$GPGGA,100419.253,0535.2827,N,00013.0610,W,1,09,0.8,42.5,M,20.4,M,0.0,0000*54
$GPRMC,100420.253,A,0535.2873,N,00013.0628,W,17.75,338.67,220410,,*29
$GPGGA,100420.253,0535.2873,N,00013.0628,W,1,09,0.8,43.0,M,20.4,M,0.0,0000*50
$GPRMC,100421.253,A,0535.2920,N,00013.0647,W,18.21,337.92,220410,,*2D
$GPGGA,100421.253,0535.2920,N,00013.0647,W,1,09,0.8,43.4,M,20.4,M,0.0,0000*5B
$GPRMC,100422.252,A,0535.2968,N,00013.0668,W,18.70,336.78,220410,,*2F
$GPGGA,100422.252,0535.2968,N,00013.0668,W,1,09,0.8,43.8,M,20.4,M,0.0,0000*54
$GPRMC,100423.252,A,0535.3017,N,00013.0689,W,19.33,335.53,220410,,*2D
$GPGGA,100423.252,0535.3017,N,00013.0689,W,1,09,0.8,44.2,M,20.4,M,0.0,0000*57
$GPRMC,100424.252,A,0535.3067,N,00013.0713,W,19.97,333.98,220410,,*20
$GPGGA,100424.252,0535.3067,N,00013.0713,W,1,09,0.8,44.6,M,20.4,M,0.0,0000*51
$GPRMC,100425.252,A,0535.3119,N,00013.0739,W,20.65,332.84,220410,,*2A
$GPGGA,100425.252,0535.3119,N,00013.0739,W,1,09,0.8,45.0,M,20.4,M,0.0,0000*57
$GPRMC,100426.252,A,0535.3171,N,00013.0767,W,21.41,331.49,220410,,*29
$GPGGA,100426.252,0535.3171,N,00013.0767,W,1,09,0.8,45.4,M,20.4,M,0.0,0000*55
$GPRMC,100427.252,A,0535.3225,N,00013.0797,W,21.86,330.20,220410,,*20
$GPGGA,100427.252,0535.3225,N,00013.0797,W,1,09,0.8,45.8,M,20.4,M,0.0,0000*55
$GPRMC,100428.252,A,0535.3279,N,00013.0829,W,22.35,328.94,220410,,*21
$GPGGA,100428.252,0535.3279,N,00013.0829,W,1,09,0.8,46.0,M,20.4,M,0.0,0000*52
$GPRMC,100429.252,A,0535.3333,N,00013.0862,W,23.03,327.92,220410,,*2D
$GPGGA,100429.252,0535.3333,N,00013.0862,W,1,09,0.8,46.2,M,20.4,M,0.0,0000*51
$GPRMC,100430.252,A,0535.3389,N,00013.0898,W,23.88,327.17,220410,,*2F
$GPGGA,100430.252,0535.3389,N,00013.0898,W,1,09,0.8,46.5,M,20.4,M,0.0,0000*5A
$GPRMC,100431.252,A,0535.3447,N,00013.0935,W,24.71,326.50,220410,,*2E
$GPGGA,100431.252,0535.3447,N,00013.0935,W,1,09,0.8,46.6,M,20.4,M,0.0,0000*5B
$GPRMC,100432.252,A,0535.3506,N,00013.0975,W,25.35,326.31,220410,,*2B
$GPGGA,100432.252,0535.3506,N,00013.0975,W,1,09,0.8,46.8,M,20.4,M,0.0,0000*56
$GPRMC,100433.252,A,0535.3566,N,00013.1015,W,26.13,326.46,220410,,*25
$GPGGA,100433.252,0535.3566,N,00013.1015,W,1,09,0.8,47.0,M,20.4,M,0.0,0000*56
$GPRMC,100434.252,A,0535.3629,N,00013.1057,W,26.84,326.63,220410,,*25
$GPGGA,100434.252,0535.3629,N,00013.1057,W,1,09,0.8,47.1,M,20.4,M,0.0,0000*5E
$GPRMC,100435.252,A,0535.3694,N,00013.1100,W,27.61,326.64,220410,,*2C
$GPGGA,100435.252,0535.3694,N,00013.1100,W,1,09,0.8,47.2,M,20.4,M,0.0,0000*59
$GPRMC,100436.252,A,0535.3760,N,00013.1143,W,28.36,327.29,220410,,*27
$GPGGA,100436.252,0535.3760,N,00013.1143,W,1,09,0.8,47.3,M,20.4,M,0.0,0000*56
$GPRMC,100437.252,A,0535.3829,N,00013.1186,W,28.93,328.28,220410,,*2C
$GPGGA,100437.252,0535.3829,N,00013.1186,W,1,09,0.8,47.4,M,20.4,M,0.0,0000*5B
$GPRMC,100438.252,A,0535.3900,N,00013.1228,W,29.52,329.96,220410,,*26
$GPGGA,100438.252,0535.3900,N,00013.1228,W,1,09,0.8,47.6,M,20.4,M,0.0,0000*5B
$GPRMC,100439.252,A,0535.3973,N,00013.1269,W,29.91,331.87,220410,,*20
$GPGGA,100439.252,0535.3973,N,00013.1269,W,1,09,0.8,47.7,M,20.4,M,0.0,0000*5A
$GPRMC,100440.252,A,0535.4049,N,00013.1307,W,30.29,334.11,220410,,*21
$GPGGA,100440.252,0535.4049,N,00013.1307,W,1,09,0.8,47.9,M,20.4,M,0.0,0000*54
$GPRMC,100441.252,A,0535.4127,N,00013.1342,W,30.62,336.73,220410,,*21
$GPGGA,100441.252,0535.4127,N,00013.1342,W,1,09,0.8,47.9,M,20.4,M,0.0,0000*5D
$GPRMC,100442.252,A,0535.4208,N,00013.1374,W,30.85,338.86,220410,,*24
$GPGGA,100442.252,0535.4208,N,00013.1374,W,1,09,0.8,48.0,M,20.4,M,0.0,0000*53
$GPRMC,100443.252,A,0535.4290,N,00013.1404,W,31.15,340.79,220410,,*23
$GPGGA,100443.252,0535.4290,N,00013.1404,W,1,09,0.8,48.1,M,20.4,M,0.0,0000*52
$GPRMC,100444.252,A,0535.4373,N,00013.1432,W,31.47,341.38,220410,,*2E
$GPGGA,100444.252,0535.4373,N,00013.1432,W,1,09,0.8,48.1,M,20.4,M,0.0,0000*5C
$GPRMC,100445.252,A,0535.4457,N,00013.1459,W,31.94,341.04,220410,,*22
$GPGGA,100445.252,0535.4457,N,00013.1459,W,1,09,0.8,48.1,M,20.4,M,0.0,0000*51
$GPRMC,100446.251,A,0535.4541,N,00013.1489,W,32.24,339.93,220410,,*20
$GPGGA,100446.251,0535.4541,N,00013.1489,W,1,09,0.8,48.0,M,20.4,M,0.0,0000*5B
$GPRMC,100447.251,A,0535.4626,N,00013.1521,W,32.56,338.80,220410,,*26
$GPGGA,100447.251,0535.4626,N,00013.1521,W,1,09,0.8,47.9,M,20.4,M,0.0,0000*5D
$GPRMC,100448.251,A,0535.4711,N,00013.1554,W,32.94,337.84,220410,,*2B
$GPGGA,100448.251,0535.4711,N,00013.1554,W,1,09,0.8,47.8,M,20.4,M,0.0,0000*54
$GPRMC,100449.251,A,0535.4797,N,00013.1590,W,33.26,336.94,220410,,*24
$GPGGA,100449.251,0535.4797,N,00013.1590,W,1,09,0.8,47.9,M,20.4,M,0.0,0000*52
$GPRMC,100450.251,A,0535.4883,N,00013.1627,W,33.58,336.10,220410,,*2C
$GPGGA,100450.251,0535.4883,N,00013.1627,W,1,09,0.8,47.9,M,20.4,M,0.0,0000*5F
$GPRMC,100451.251,A,0535.4969,N,00013.1666,W,33.87,335.21,220410,,*2E
$GPGGA,100451.251,0535.4969,N,00013.1666,W,1,09,0.8,48.0,M,20.4,M,0.0,0000*58
$GPRMC,100452.251,A,0535.5054,N,00013.1706,W,33.47,334.69,220410,,*2D
$GPGGA,100452.251,0535.5054,N,00013.1706,W,1,09,0.8,48.0,M,20.4,M,0.0,0000*5A
$GPRMC,100453.251,A,0535.5136,N,00013.1746,W,32.24,333.89,220410,,*20
$GPGGA,100453.251,0535.5136,N,00013.1746,W,1,09,0.8,47.9,M,20.4,M,0.0,0000*5C
$GPRMC,100454.251,A,0535.5214,N,00013.1786,W,30.39,332.99,220410,,*26
$GPGGA,100454.251,0535.5214,N,00013.1786,W,1,09,0.8,47.8,M,20.4,M,0.0,0000*55
$GPRMC,100455.251,A,0535.5287,N,00013.1824,W,28.94,332.08,220410,,*2C
$GPGGA,100455.251,0535.5287,N,00013.1824,W,1,09,0.8,47.7,M,20.4,M,0.0,0000*56
$GPRMC,100456.251,A,0535.5354,N,00013.1861,W,27.03,331.18,220410,,*22
$GPGGA,100456.251,0535.5354,N,00013.1861,W,1,09,0.8,47.7,M,20.4,M,0.0,0000*5B
$GPRMC,100457.251,A,0535.5418,N,00013.1897,W,25.62,330.35,220410,,*2E
$GPGGA,100457.251,0535.5418,N,00013.1897,W,1,09,0.8,47.7,M,20.4,M,0.0,0000*5C
$GPRMC,100458.251,A,0535.5476,N,00013.1931,W,23.43,329.49,220410,,*22
$GPGGA,100458.251,0535.5476,N,00013.1931,W,1,09,0.8,47.8,M,20.4,M,0.0,0000*59
$GPRMC,100459.251,A,0535.5527,N,00013.1962,W,20.05,328.27,220410,,*28
$GPGGA,100459.251,0535.5527,N,00013.1962,W,1,09,0.8,47.9,M,20.4,M,0.0,0000*5A
$GPRMC,100500.251,A,0535.5570,N,00013.1989,W,17.75,327.08,220410,,*23
$GPGGA,100500.251,0535.5570,N,00013.1989,W,1,09,0.8,48.0,M,20.4,M,0.0,0000*56
$GPRMC,100501.251,A,0535.5607,N,00013.2014,W,15.67,326.71,220410,,*21
$GPGGA,100501.251,0535.5607,N,00013.2014,W,1,09,0.8,48.1,M,20.4,M,0.0,0000*5B
$GPRMC,100502.251,A,0535.5639,N,00013.2036,W,13.54,326.44,220410,,*2F
$GPGGA,100502.251,0535.5639,N,00013.2036,W,1,09,0.8,48.0,M,20.4,M,0.0,0000*54
$GPRMC,100503.251,A,0535.5665,N,00013.2054,W,10.98,326.20,220410,,*22
$GPGGA,100503.251,0535.5665,N,00013.2054,W,1,09,0.8,48.0,M,20.4,M,0.0,0000*58
$GPRMC,100504.251,A,0535.5686,N,00013.2069,W,8.97,326.50,220410,,*17
$GPGGA,100504.251,0535.5686,N,00013.2069,W,1,09,0.8,48.0,M,20.4,M,0.0,0000*5C
$GPRMC,100505.251,A,0535.5702,N,00013.2080,W,7.46,327.08,220410,,*13
$GPGGA,100505.251,0535.5702,N,00013.2080,W,1,09,0.8,48.0,M,20.4,M,0.0,0000*57
$GPRMC,100506.251,A,0535.5716,N,00013.2090,W,6.08,327.49,220410,,*1A
$GPGGA,100506.251,0535.5716,N,00013.2090,W,1,09,0.8,48.0,M,20.4,M,0.0,0000*50
$GPRMC,100507.251,A,0535.5726,N,00013.2097,W,4.70,328.54,220410,,*11
$GPGGA,100507.251,0535.5726,N,00013.2097,W,1,09,0.8,48.1,M,20.4,M,0.0,0000*54
$GPRMC,100508.251,A,0535.5735,N,00013.2103,W,4.71,329.63,220410,,*14
$GPGGA,100508.251,0535.5735,N,00013.2103,W,1,09,0.8,48.2,M,20.4,M,0.0,0000*56
$GPRMC,100509.250,A,0535.5745,N,00013.2109,W,5.38,330.78,220410,,*17
$GPGGA,100509.250,0535.5745,N,00013.2109,W,1,09,0.8,48.2,M,20.4,M,0.0,0000*5B
$GPRMC,100510.250,A,0535.5758,N,00013.2116,W,6.65,331.82,220410,,*12
$GPGGA,100510.250,0535.5758,N,00013.2116,W,1,09,0.8,48.2,M,20.4,M,0.0,0000*51
$GPRMC,100511.250,A,0535.5776,N,00013.2126,W,8.43,330.83,220410,,*16
$GPGGA,100511.250,0535.5776,N,00013.2126,W,1,09,0.8,48.2,M,20.4,M,0.0,0000*5F
$GPRMC,100512.250,A,0535.5798,N,00013.2138,W,10.17,329.43,220410,,*26
$GPGGA,100512.250,0535.5798,N,00013.2138,W,1,09,0.8,48.2,M,20.4,M,0.0,0000*53
$GPRMC,100513.250,A,0535.5824,N,00013.2154,W,11.86,327.52,220410,,*22
$GPGGA,100513.250,0535.5824,N,00013.2154,W,1,09,0.8,48.2,M,20.4,M,0.0,0000*50
$GPRMC,100514.250,A,0535.5854,N,00013.2174,W,13.65,325.43,220410,,*2D
$GPGGA,100514.250,0535.5854,N,00013.2174,W,1,09,0.8,48.2,M,20.4,M,0.0,0000*52
$GPRMC,100515.250,A,0535.5887,N,00013.2197,W,15.33,323.62,220410,,*2F
$GPGGA,100515.250,0535.5887,N,00013.2197,W,1,09,0.8,48.1,M,20.4,M,0.0,0000*53
$GPRMC,100516.250,A,0535.5924,N,00013.2225,W,16.72,321.84,220410,,*22
$GPGGA,100516.250,0535.5924,N,00013.2225,W,1,09,0.8,48.2,M,20.4,M,0.0,0000*51
$GPRMC,100517.250,A,0535.5962,N,00013.2256,W,17.84,321.88,220410,,*21
$GPGGA,100517.250,0535.5962,N,00013.2256,W,1,09,0.8,48.4,M,20.4,M,0.0,0000*50
$GPRMC,100518.250,A,0535.6004,N,00013.2288,W,18.85,322.80,220410,,*22
$GPGGA,100518.250,0535.6004,N,00013.2288,W,1,09,0.8,48.6,M,20.4,M,0.0,0000*54
$GPRMC,100519.250,A,0535.6049,N,00013.2321,W,19.94,324.08,220410,,*2F
$GPGGA,100519.250,0535.6049,N,00013.2321,W,1,09,0.8,48.8,M,20.4,M,0.0,0000*50
$GPRMC,100520.250,A,0535.6098,N,00013.2355,W,21.05,324.89,220410,,*20
$GPGGA,100520.250,0535.6098,N,00013.2355,W,1,09,0.8,49.0,M,20.4,M,0.0,0000*5C
$GPRMC,100521.250,A,0535.6149,N,00013.2391,W,22.35,324.54,220410,,*24
$GPGGA,100521.250,0535.6149,N,00013.2391,W,1,09,0.8,49.1,M,20.4,M,0.0,0000*59
$GPRMC,100522.250,A,0535.6202,N,00013.2429,W,23.50,324.31,220410,,*2E
$GPGGA,100522.250,0535.6202,N,00013.2429,W,1,09,0.8,49.2,M,20.4,M,0.0,0000*51
$GPRMC,100523.250,A,0535.6258,N,00013.2469,W,24.39,324.08,220410,,*26
$GPGGA,100523.250,0535.6258,N,00013.2469,W,1,09,0.8,49.2,M,20.4,M,0.0,0000*5B
$GPRMC,100524.250,A,0535.6315,N,00013.2510,W,25.15,324.16,220410,,*26
$GPGGA,100524.250,0535.6315,N,00013.2510,W,1,09,0.8,49.3,M,20.4,M,0.0,0000*5A
$GPRMC,100525.250,A,0535.6374,N,00013.2553,W,25.80,324.41,220410,,*29
$GPGGA,100525.250,0535.6374,N,00013.2553,W,1,09,0.8,49.4,M,20.4,M,0.0,0000*5C
$GPRMC,100526.250,A,0535.6435,N,00013.2596,W,26.39,324.75,220410,,*27
$GPGGA,100526.250,0535.6435,N,00013.2596,W,1,09,0.8,49.5,M,20.4,M,0.0,0000*55
$GPRMC,100527.250,A,0535.6497,N,00013.2639,W,27.07,324.88,220410,,*26
$GPGGA,100527.250,0535.6497,N,00013.2639,W,1,09,0.8,49.6,M,20.4,M,0.0,0000*59
$GPRMC,100528.250,A,0535.6560,N,00013.2684,W,27.75,325.28,220410,,*28
$GPGGA,100528.250,0535.6560,N,00013.2684,W,1,09,0.8,49.6,M,20.4,M,0.0,0000*59
$GPRMC,100529.250,A,0535.6626,N,00013.2729,W,28.52,325.37,220410,,*2A
$GPGGA,100529.250,0535.6626,N,00013.2729,W,1,08,1.0,49.7,M,20.4,M,0.0,0000*56
$GPRMC,100530.250,A,0535.6693,N,00013.2775,W,29.17,325.18,220410,,*28
$GPGGA,100530.250,0535.6693,N,00013.2775,W,1,09,0.8,49.8,M,20.4,M,0.0,0000*5E
$GPRMC,100531.250,A,0535.6762,N,00013.2823,W,29.87,325.25,220410,,*2D
$GPGGA,100531.250,0535.6762,N,00013.2823,W,1,09,0.8,49.9,M,20.4,M,0.0,0000*5D
$GPRMC,100532.249,A,0535.6832,N,00013.2871,W,30.55,325.25,220410,,*2C
$GPGGA,100532.249,0535.6832,N,00013.2871,W,1,09,0.8,50.0,M,20.4,M,0.0,0000*5A
$GPRMC,100533.249,A,0535.6904,N,00013.2920,W,31.14,325.23,220410,,*2E
$GPGGA,100533.249,0535.6904,N,00013.2920,W,1,09,0.8,49.9,M,20.4,M,0.0,0000*5B
$GPRMC,100534.249,A,0535.6976,N,00013.2971,W,31.71,325.03,220410,,*29
$GPGGA,100534.249,0535.6976,N,00013.2971,W,1,09,0.8,49.9,M,20.4,M,0.0,0000*5D
$GPRMC,100535.249,A,0535.7051,N,00013.3023,W,32.26,324.91,220410,,*21
$GPGGA,100535.249,0535.7051,N,00013.3023,W,1,09,0.8,50.0,M,20.4,M,0.0,0000*5F
$GPRMC,100536.249,A,0535.7126,N,00013.3075,W,32.74,325.10,220410,,*2F
$GPGGA,100536.249,0535.7126,N,00013.3075,W,1,09,0.8,50.0,M,20.4,M,0.0,0000*5E
$GPRMC,100537.249,A,0535.7203,N,00013.3128,W,33.23,326.06,220410,,*24
$GPGGA,100537.249,0535.7203,N,00013.3128,W,1,09,0.8,50.1,M,20.4,M,0.0,0000*53
$GPRMC,100538.249,A,0535.7282,N,00013.3180,W,33.71,327.54,220410,,*21
$GPGGA,100538.249,0535.7282,N,00013.3180,W,1,09,0.8,50.2,M,20.4,M,0.0,0000*54
$GPRMC,100539.249,A,0535.7364,N,00013.3229,W,34.29,329.47,220410,,*2F
$GPGGA,100539.249,0535.7364,N,00013.3229,W,1,09,0.8,50.3,M,20.4,M,0.0,0000*5D
$GPRMC,100540.249,A,0535.7450,N,00013.3278,W,35.22,331.22,220410,,*25
$GPGGA,100540.249,0535.7450,N,00013.3278,W,1,09,0.8,50.4,M,20.4,M,0.0,0000*50
$GPRMC,100541.249,A,0535.7538,N,00013.3325,W,36.07,331.97,220410,,*28
$GPGGA,100541.249,0535.7538,N,00013.3325,W,1,08,1.0,50.2,M,20.4,M,0.0,0000*59
$GPRMC,100542.249,A,0535.7629,N,00013.3372,W,36.97,331.95,220410,,*21
$GPGGA,100542.249,0535.7629,N,00013.3372,W,1,09,0.8,49.8,M,20.4,M,0.0,0000*51
$GPRMC,100543.249,A,0535.7721,N,00013.3421,W,37.73,331.77,220410,,*2F
$GPGGA,100543.249,0535.7721,N,00013.3421,W,1,09,0.8,49.4,M,20.4,M,0.0,0000*54
$GPRMC,100544.249,A,0535.7815,N,00013.3471,W,38.05,331.82,220410,,*21
$GPGGA,100544.249,0535.7815,N,00013.3471,W,1,09,0.8,49.0,M,20.4,M,0.0,0000*5A
$GPRMC,100545.249,A,0535.7910,N,00013.3521,W,38.08,331.65,220410,,*24
$GPGGA,100545.249,0535.7910,N,00013.3521,W,1,09,0.8,48.8,M,20.4,M,0.0,0000*52
$GPRMC,100546.249,A,0535.8003,N,00013.3571,W,37.41,331.79,220410,,*29
$GPGGA,100546.249,0535.8003,N,00013.3571,W,1,08,1.0,48.6,M,20.4,M,0.0,0000*56
$GPRMC,100547.249,A,0535.8094,N,00013.3619,W,36.18,331.85,220410,,*25
$GPGGA,100547.249,0535.8094,N,00013.3619,W,1,08,1.0,48.4,M,20.4,M,0.0,0000*56
$GPRMC,100548.249,A,0535.8182,N,00013.3665,W,35.14,331.90,220410,,*2C
$GPGGA,100548.249,0535.8182,N,00013.3665,W,1,09,0.8,48.5,M,20.4,M,0.0,0000*5D
$GPRMC,100549.249,A,0535.8267,N,00013.3710,W,33.87,332.01,220410,,*21
$GPGGA,100549.249,0535.8267,N,00013.3710,W,1,09,0.8,48.7,M,20.4,M,0.0,0000*55
$GPRMC,100550.249,A,0535.8347,N,00013.3752,W,31.53,331.97,220410,,*2B
$GPGGA,100550.249,0535.8347,N,00013.3752,W,1,09,0.8,49.0,M,20.4,M,0.0,0000*5E
$GPRMC,100551.249,A,0535.8422,N,00013.3792,W,29.95,332.07,220410,,*2B
$GPGGA,100551.249,0535.8422,N,00013.3792,W,1,09,0.8,49.3,M,20.4,M,0.0,0000*54
$GPRMC,100552.249,A,0535.8494,N,00013.3830,W,29.08,332.15,220410,,*25
$GPGGA,100552.249,0535.8494,N,00013.3830,W,1,09,0.8,49.6,M,20.4,M,0.0,0000*58
$GPRMC,100553.249,A,0535.8563,N,00013.3867,W,28.16,332.19,220410,,*2D
$GPGGA,100553.249,0535.8563,N,00013.3867,W,1,08,1.0,50.0,M,20.4,M,0.0,0000*54
$GPRMC,100554.249,A,0535.8631,N,00013.3903,W,27.35,331.93,220410,,*22
$GPGGA,100554.249,0535.8631,N,00013.3903,W,1,09,0.8,50.3,M,20.4,M,0.0,0000*5F
$GPRMC,100555.249,A,0535.8696,N,00013.3939,W,26.77,331.81,220410,,*23
$GPGGA,100555.249,0535.8696,N,00013.3939,W,1,08,1.0,50.5,M,20.4,M,0.0,0000*54
$GPRMC,100556.248,A,0535.8760,N,00013.3973,W,26.34,332.10,220410,,*2B
$GPGGA,100556.248,0535.8760,N,00013.3973,W,1,08,1.0,50.5,M,20.4,M,0.0,0000*50
$GPRMC,100557.248,A,0535.8823,N,00013.4007,W,25.64,332.40,220410,,*2C
$GPGGA,100557.248,0535.8823,N,00013.4007,W,1,08,1.0,50.5,M,20.4,M,0.0,0000*54
$GPRMC,100558.248,A,0535.8884,N,00013.4039,W,24.53,332.36,220410,,*27
$GPGGA,100558.248,0535.8884,N,00013.4039,W,1,08,1.0,50.4,M,20.4,M,0.0,0000*5A
$GPRMC,100559.248,A,0535.8942,N,00013.4070,W,23.97,332.19,220410,,*22
$GPGGA,100559.248,0535.8942,N,00013.4070,W,1,08,1.0,50.4,M,20.4,M,0.0,0000*5D
$GPRMC,100600.248,A,0535.9000,N,00013.4100,W,23.73,331.77,220410,,*24
$GPGGA,100600.248,0535.9000,N,00013.4100,W,1,08,1.0,50.3,M,20.4,M,0.0,0000*5D
$GPRMC,100601.248,A,0535.9057,N,00013.4131,W,23.64,331.05,220410,,*26
$GPGGA,100601.248,0535.9057,N,00013.4131,W,1,08,1.0,50.3,M,20.4,M,0.0,0000*5C
$GPRMC,100602.248,A,0535.9114,N,00013.4163,W,23.59,330.18,220410,,*27
$GPGGA,100602.248,0535.9114,N,00013.4163,W,1,08,1.0,50.2,M,20.4,M,0.0,0000*5F
$GPRMC,100603.248,A,0535.9171,N,00013.4196,W,23.40,329.19,220410,,*2E
$GPGGA,100603.248,0535.9171,N,00013.4196,W,1,08,1.0,50.1,M,20.4,M,0.0,0000*54
$GPRMC,100604.248,A,0535.9226,N,00013.4230,W,22.93,328.62,220410,,*25
$GPGGA,100604.248,0535.9226,N,00013.4230,W,1,09,0.8,50.0,M,20.4,M,0.0,0000*54
$GPRMC,100605.248,A,0535.9279,N,00013.4263,W,22.39,328.31,220410,,*2E
$GPGGA,100605.248,0535.9279,N,00013.4263,W,1,09,0.8,49.9,M,20.4,M,0.0,0000*58
$GPRMC,100606.248,A,0535.9330,N,00013.4294,W,21.11,328.50,220410,,*27
$GPGGA,100606.248,0535.9330,N,00013.4294,W,1,09,0.8,49.7,M,20.4,M,0.0,0000*51
$GPRMC,100607.248,A,0535.9378,N,00013.4323,W,19.71,330.03,220410,,*25
$GPGGA,100607.248,0535.9378,N,00013.4323,W,1,08,1.0,49.4,M,20.4,M,0.0,0000*5A
$GPRMC,100608.248,A,0535.9423,N,00013.4348,W,18.31,331.15,220410,,*2D
$GPGGA,100608.248,0535.9423,N,00013.4348,W,1,09,0.8,49.2,M,20.4,M,0.0,0000*5F
$GPRMC,100609.248,A,0535.9465,N,00013.4371,W,16.75,332.23,220410,,*2C
$GPGGA,100609.248,0535.9465,N,00013.4371,W,1,09,0.8,49.0,M,20.4,M,0.0,0000*54
$GPRMC,100610.248,A,0535.9503,N,00013.4390,W,15.20,333.47,220410,,*2A
$GPGGA,100610.248,0535.9503,N,00013.4390,W,1,09,0.8,48.8,M,20.4,M,0.0,0000*5B
$GPRMC,100611.248,A,0535.9538,N,00013.4407,W,13.06,333.97,220410,,*25
$GPGGA,100611.248,0535.9538,N,00013.4407,W,1,09,0.8,49.0,M,20.4,M,0.0,0000*52
$GPRMC,100612.248,A,0535.9565,N,00013.4420,W,10.19,333.54,220410,,*29
$GPGGA,100612.248,0535.9565,N,00013.4420,W,1,08,1.0,48.9,M,20.4,M,0.0,0000*5C
$GPRMC,100613.248,A,0535.9585,N,00013.4431,W,7.53,333.52,220410,,*18
$GPGGA,100613.248,0535.9585,N,00013.4431,W,1,09,0.8,49.0,M,20.4,M,0.0,0000*53
$GPRMC,100614.248,A,0535.9600,N,00013.4438,W,5.93,333.52,220410,,*16
$GPGGA,100614.248,0535.9600,N,00013.4438,W,1,08,1.0,48.9,M,20.4,M,0.0,0000*53
$GPRMC,100615.248,A,0535.9611,N,00013.4444,W,4.63,333.42,220410,,*13
$GPGGA,100615.248,0535.9611,N,00013.4444,W,1,08,1.0,48.7,M,20.4,M,0.0,0000*57
$GPRMC,100616.248,A,0535.9618,N,00013.4448,W,3.11,333.72,220410,,*14
$GPGGA,100616.248,0535.9618,N,00013.4448,W,1,09,0.8,48.7,M,20.4,M,0.0,0000*59
$GPRMC,100617.248,A,0535.9622,N,00013.4450,W,1.60,332.71,220410,,*13
$GPGGA,100617.248,0535.9622,N,00013.4450,W,1,09,0.8,48.8,M,20.4,M,0.0,0000*57
$GPRMC,100618.248,A,0535.9622,N,00013.4450,W,0.55,332.71,220410,,*1B
$GPGGA,100618.248,0535.9622,N,00013.4450,W,1,08,1.0,48.8,M,20.4,M,0.0,0000*50
$GPRMC,100619.248,A,0535.9620,N,00013.4450,W,0.03,98.20,220410,,*2C
$GPGGA,100619.248,0535.9620,N,00013.4450,W,1,08,1.0,49.0,M,20.4,M,0.0,0000*5A
$GPRMC,100620.247,A,0535.9618,N,00013.4449,W,0.02,273.69,220410,,*11
$GPGGA,100620.247,0535.9618,N,00013.4449,W,1,08,1.0,49.3,M,20.4,M,0.0,0000*5F
$GPRMC,100621.247,A,0535.9616,N,00013.4447,W,0.02,45.37,220410,,*2C
$GPGGA,100621.247,0535.9616,N,00013.4447,W,1,08,1.0,49.4,M,20.4,M,0.0,0000*59
$GPRMC,100622.247,A,0535.9614,N,00013.4445,W,0.04,336.09,220410,,*13
$GPGGA,100622.247,0535.9614,N,00013.4445,W,1,08,1.0,49.4,M,20.4,M,0.0,0000*5A
$GPRMC,100623.247,A,0535.9612,N,00013.4444,W,0.01,42.80,220410,,*21
$GPGGA,100623.247,0535.9612,N,00013.4444,W,1,08,1.0,49.3,M,20.4,M,0.0,0000*5B
$GPRMC,100624.247,A,0535.9611,N,00013.4443,W,0.01,247.40,220410,,*19
$GPGGA,100624.247,0535.9611,N,00013.4443,W,1,08,1.0,49.2,M,20.4,M,0.0,0000*59
$GPRMC,100625.247,A,0535.9610,N,00013.4442,W,0.00,83.85,220410,,*2A
$GPGGA,100625.247,0535.9610,N,00013.4442,W,1,08,1.0,48.9,M,20.4,M,0.0,0000*52
$GPRMC,100626.247,A,0535.9610,N,00013.4441,W,0.03,55.00,220410,,*2F
$GPGGA,100626.247,0535.9610,N,00013.4441,W,1,08,1.0,48.8,M,20.4,M,0.0,0000*53
$GPRMC,100627.247,A,0535.9611,N,00013.4441,W,0.02,41.13,220410,,*29
$GPGGA,100627.247,0535.9611,N,00013.4441,W,1,08,1.0,48.7,M,20.4,M,0.0,0000*5C
$GPRMC,100628.247,A,0535.9612,N,00013.4441,W,0.03,37.03,220410,,*24
$GPGGA,100628.247,0535.9612,N,00013.4441,W,1,08,1.0,48.6,M,20.4,M,0.0,0000*51
$GPRMC,100629.247,A,0535.9612,N,00013.4441,W,0.02,5.46,220410,,*14
$GPGGA,100629.247,0535.9612,N,00013.4441,W,1,08,1.0,48.6,M,20.4,M,0.0,0000*50
$GPRMC,100630.247,A,0535.9613,N,00013.4441,W,0.03,48.48,220410,,*2B
$GPGGA,100630.247,0535.9613,N,00013.4441,W,1,08,1.0,48.7,M,20.4,M,0.0,0000*58
$GPRMC,100631.247,A,0535.9614,N,00013.4441,W,0.08,59.81,220410,,*23
$GPGGA,100631.247,0535.9614,N,00013.4441,W,1,08,1.0,49.0,M,20.4,M,0.0,0000*58
$GPRMC,100632.247,A,0535.9615,N,00013.4441,W,0.01,292.64,220410,,*16
$GPGGA,100632.247,0535.9615,N,00013.4441,W,1,08,1.0,49.3,M,20.4,M,0.0,0000*59
$GPRMC,100633.247,A,0535.9615,N,00013.4441,W,0.02,295.88,220410,,*11
$GPGGA,100633.247,0535.9615,N,00013.4441,W,1,08,1.0,49.7,M,20.4,M,0.0,0000*5C
$GPRMC,100634.247,A,0535.9615,N,00013.4441,W,0.03,27.62,220410,,*28
$GPGGA,100634.247,0535.9615,N,00013.4441,W,1,08,1.0,50.0,M,20.4,M,0.0,0000*54
$GPRMC,100635.247,A,0535.9614,N,00013.4441,W,0.01,14.43,220410,,*29
$GPGGA,100635.247,0535.9614,N,00013.4441,W,1,08,1.0,50.2,M,20.4,M,0.0,0000*56
$GPRMC,100636.247,A,0535.9613,N,00013.4440,W,0.01,38.30,220410,,*26
$GPGGA,100636.247,0535.9613,N,00013.4440,W,1,08,1.0,50.3,M,20.4,M,0.0,0000*52
$GPRMC,100637.247,A,0535.9612,N,00013.4440,W,0.03,35.68,220410,,*24
$GPGGA,100637.247,0535.9612,N,00013.4440,W,1,08,1.0,50.3,M,20.4,M,0.0,0000*52
$GPRMC,100638.247,A,0535.9611,N,00013.4440,W,0.03,15.18,220410,,*2D
$GPGGA,100638.247,0535.9611,N,00013.4440,W,1,08,1.0,50.4,M,20.4,M,0.0,0000*59
$GPRMC,100639.247,A,0535.9611,N,00013.4440,W,0.10,337.18,220410,,*1D
$GPGGA,100639.247,0535.9611,N,00013.4440,W,1,08,1.0,50.3,M,20.4,M,0.0,0000*5F
$GPRMC,100640.247,A,0535.9610,N,00013.4440,W,0.26,335.72,220410,,*19
$GPGGA,100640.247,0535.9610,N,00013.4440,W,1,08,1.0,50.2,M,20.4,M,0.0,0000*51
$GPRMC,100641.247,A,0535.9610,N,00013.4441,W,0.31,332.20,220410,,*1F
$GPGGA,100641.247,0535.9610,N,00013.4441,W,1,08,1.0,50.0,M,20.4,M,0.0,0000*53
$GPRMC,100642.247,A,0535.9611,N,00013.4441,W,0.02,304.33,220410,,*1A
$GPGGA,100642.247,0535.9611,N,00013.4441,W,1,08,1.0,49.7,M,20.4,M,0.0,0000*5E
$GPRMC,100643.246,A,0535.9613,N,00013.4440,W,0.05,33.69,220410,,*26
$GPGGA,100643.246,0535.9613,N,00013.4440,W,1,08,1.0,49.3,M,20.4,M,0.0,0000*59
$GPRMC,100644.246,A,0535.9615,N,00013.4440,W,0.04,36.88,220410,,*2C
$GPGGA,100644.246,0535.9615,N,00013.4440,W,1,08,1.0,48.9,M,20.4,M,0.0,0000*53
$GPRMC,100645.246,A,0535.9618,N,00013.4440,W,0.01,0.11,220410,,*10
$GPGGA,100645.246,0535.9618,N,00013.4440,W,1,08,1.0,48.6,M,20.4,M,0.0,0000*50
$GPRMC,100646.246,A,0535.9620,N,00013.4440,W,0.01,50.25,220410,,*2A
$GPGGA,100646.246,0535.9620,N,00013.4440,W,1,08,1.0,48.7,M,20.4,M,0.0,0000*59
$GPRMC,100647.246,A,0535.9622,N,00013.4440,W,0.03,24.59,220410,,*23
